{
  "1ADA1": {
    "stop_code": "1ADA1",
    "stop_lat": "41.1716440199193",
    "stop_lon": "-8.61355552858081",
    "stop_name": "ARCA D'ÁGUA",
    "zone_id": "PRT1"
  },
  "1AL2": {
    "stop_code": "1AL2",
    "stop_lat": "41.1495147366521",
    "stop_lon": "-8.6100690279121",
    "stop_name": "AV.ALIADOS",
    "zone_id": "PRT1"
  },
  "1AL6": {
    "stop_code": "1AL6",
    "stop_lat": "41.1491175343024",
    "stop_lon": "-8.6100096776489",
    "stop_name": "AV.ALIADOS",
    "zone_id": "PRT1"
  },
  "1BS2": {
    "stop_code": "1BS2",
    "stop_lat": "41.155925167507",
    "stop_lon": "-8.62776236753369",
    "stop_name": "BOAVISTA - B.SUCESSO",
    "zone_id": "PRT1"
  },
  "1CDR2": {
    "stop_code": "1CDR2",
    "stop_lat": "41.1992781703886",
    "stop_lon": "-8.65756982394735",
    "stop_name": "RUA CÂNDIDO DOS REIS",
    "zone_id": "MTS1"
  },
  "1DBR1": {
    "stop_code": "1DBR1",
    "stop_lat": "41.1498620598388",
    "stop_lon": "-8.61763800660253",
    "stop_name": "DIOGO BRANDÃO",
    "zone_id": "PRT1"
  },
  "1GUIF3": {
    "stop_code": "1GUIF3",
    "stop_lat": "41.1983046204583",
    "stop_lon": "-8.66602779550577",
    "stop_name": "GUIFÕES",
    "zone_id": "MTS1"
  },
  "1HSJ2": {
    "stop_code": "1HSJ2",
    "stop_lat": "41.1835511568116",
    "stop_lon": "-8.60312078853987",
    "stop_name": "HOSP. S. JOÃO (URGÊNCIA)",
    "zone_id": "PRT3"
  },
  "1JNS1": {
    "stop_code": "1JNS1",
    "stop_lat": "41.1921318499849",
    "stop_lon": "-8.66901725659027",
    "stop_name": "JOAQUIM N. SANTOS",
    "zone_id": "MTS1"
  },
  "1MGB1": {
    "stop_code": "1MGB1",
    "stop_lat": "41.1497565574623",
    "stop_lon": "-8.62029347012526",
    "stop_name": "MIGUEL BOMBARDA",
    "zone_id": "PRT1"
  },
  "1MTC1": {
    "stop_code": "1MTC1",
    "stop_lat": "41.1961130492092",
    "stop_lon": "-8.67257837212979",
    "stop_name": "MONTE CASTELO",
    "zone_id": "MTS1"
  },
  "1R9A1": {
    "stop_code": "1R9A1",
    "stop_lat": "41.1701170139347",
    "stop_lon": "-8.61785894732277",
    "stop_name": "R. 9 ABRIL",
    "zone_id": "PRT1"
  },
  "1SALV": {
    "stop_code": "1SALV",
    "stop_lat": "41.1953568762061",
    "stop_lon": "-8.66675483918907",
    "stop_name": "SALVADO",
    "zone_id": "MTS1"
  },
  "1SBNT": {
    "stop_code": "1SBNT",
    "stop_lat": "41.1448596662601",
    "stop_lon": "-8.61083698086075",
    "stop_name": "S.BENTO",
    "zone_id": "PRT1"
  },
  "1SGZ1": {
    "stop_code": "1SGZ1",
    "stop_lat": "41.195138873826",
    "stop_lon": "-8.66088892412102",
    "stop_name": "AV. SALGADO ZENHA",
    "zone_id": "MTS1"
  },
  "1SGZ2": {
    "stop_code": "1SGZ2",
    "stop_lat": "41.1951110963244",
    "stop_lon": "-8.66072216864944",
    "stop_name": "AV. SALGADO ZENHA",
    "zone_id": "MTS1"
  },
  "25A1": {
    "stop_code": "25A1",
    "stop_lat": "41.1443333092827",
    "stop_lon": "-8.53241666710132",
    "stop_name": "25 DE ABRIL",
    "zone_id": "GDM1"
  },
  "25A2": {
    "stop_code": "25A2",
    "stop_lat": "41.1442824059415",
    "stop_lon": "-8.53226960776201",
    "stop_name": "25 DE ABRIL",
    "zone_id": "GDM1"
  },
  "25AB1": {
    "stop_code": "25AB1",
    "stop_lat": "41.1919010726989",
    "stop_lon": "-8.50304450113557",
    "stop_name": "25 DE ABRIL",
    "zone_id": "VLG1"
  },
  "25AB2": {
    "stop_code": "25AB2",
    "stop_lat": "41.1917422843746",
    "stop_lon": "-8.50353280531056",
    "stop_name": "25 DE ABRIL",
    "zone_id": "VLG1"
  },
  "28J1": {
    "stop_code": "28J1",
    "stop_lat": "41.1372221907552",
    "stop_lon": "-8.63344438968152",
    "stop_name": "28 DE JANEIRO",
    "zone_id": "VNG1"
  },
  "28J2": {
    "stop_code": "28J2",
    "stop_lat": "41.1367144640935",
    "stop_lon": "-8.63304546419777",
    "stop_name": "28 DE JANEIRO",
    "zone_id": "VNG1"
  },
  "31JA3": {
    "stop_code": "31JA3",
    "stop_lat": "41.2258611284977",
    "stop_lon": "-8.68416663811269",
    "stop_name": "31 DE JANEIRO",
    "zone_id": "MTS2"
  },
  "31JA4": {
    "stop_code": "31JA4",
    "stop_lat": "41.2272221818686",
    "stop_lon": "-8.68544444588205",
    "stop_name": "31 DE JANEIRO",
    "zone_id": "MTS2"
  },
  "4CAM3": {
    "stop_code": "4CAM3",
    "stop_lat": "41.2060660343926",
    "stop_lon": "-8.52894145660197",
    "stop_name": "4 CAMINHOS",
    "zone_id": "MAI4"
  },
  "4CAM4": {
    "stop_code": "4CAM4",
    "stop_lat": "41.2060833350949",
    "stop_lon": "-8.52883330308102",
    "stop_name": "4 CAMINHOS",
    "zone_id": "MAI4"
  },
  "5OTB3": {
    "stop_code": "5OTB3",
    "stop_lat": "41.2256173142582",
    "stop_lon": "-8.61001785183518",
    "stop_name": "5 DE OUTUBRO",
    "zone_id": "MAI1"
  },
  "5OTR1": {
    "stop_code": "5OTR1",
    "stop_lat": "41.2178387881654",
    "stop_lon": "-8.54705776887291",
    "stop_name": "5 DE OUTUBRO",
    "zone_id": "MAI4"
  },
  "5OTR2": {
    "stop_code": "5OTR2",
    "stop_lat": "41.2179543431514",
    "stop_lon": "-8.54717393206976",
    "stop_name": "5 DE OUTUBRO",
    "zone_id": "MAI4"
  },
  "5OUT1": {
    "stop_code": "5OUT1",
    "stop_lat": "41.199222167535",
    "stop_lon": "-8.58469437456025",
    "stop_name": "5 DE OUTUBRO",
    "zone_id": "MAI4"
  },
  "5OUT2": {
    "stop_code": "5OUT2",
    "stop_lat": "41.1996894678356",
    "stop_lon": "-8.58474468510926",
    "stop_name": "5 DE OUTUBRO",
    "zone_id": "MAI4"
  },
  "9AG1": {
    "stop_code": "9AG1",
    "stop_lat": "41.2114652832074",
    "stop_lon": "-8.53204503930692",
    "stop_name": "9 DE AGOSTO",
    "zone_id": "MAI4"
  },
  "9AG2": {
    "stop_code": "9AG2",
    "stop_lat": "41.211923465861",
    "stop_lon": "-8.5321862658401",
    "stop_name": "9 DE AGOSTO",
    "zone_id": "MAI4"
  },
  "A25A1": {
    "stop_code": "A25A1",
    "stop_lat": "41.1555277896634",
    "stop_lon": "-8.58608327383168",
    "stop_name": "AV. 25 DE ABRIL",
    "zone_id": "PRT1"
  },
  "AAL1": {
    "stop_code": "AAL1",
    "stop_lat": "41.1489444244748",
    "stop_lon": "-8.61127779731674",
    "stop_name": "AV.ALIADOS",
    "zone_id": "PRT1"
  },
  "AAL2": {
    "stop_code": "AAL2",
    "stop_lat": "41.1488184731304",
    "stop_lon": "-8.61047208496171",
    "stop_name": "AV. ALIADOS",
    "zone_id": "PRT1"
  },
  "AAL4": {
    "stop_code": "AAL4",
    "stop_lat": "41.1485277270248",
    "stop_lon": "-8.61066664214757",
    "stop_name": "AV.ALIADOS",
    "zone_id": "PRT1"
  },
  "AAL5": {
    "stop_code": "AAL5",
    "stop_lat": "41.1482143139209",
    "stop_lon": "-8.61068211157332",
    "stop_name": "AV.ALIADOS",
    "zone_id": "PRT1"
  },
  "AALB": {
    "stop_code": "AALB",
    "stop_lat": "41.1588150642884",
    "stop_lon": "-8.6623307525236",
    "stop_name": "AFONSO  ALBUQUERQUE",
    "zone_id": "PRT2"
  },
  "AALM1": {
    "stop_code": "AALM1",
    "stop_lat": "41.1923424458183",
    "stop_lon": "-8.57087044381921",
    "stop_name": "ANTÃO DE ALMADA",
    "zone_id": "MAI4"
  },
  "AANT1": {
    "stop_code": "AANT1",
    "stop_lat": "41.1627120138617",
    "stop_lon": "-8.58601669995918",
    "stop_name": "ALAMEDA DAS ANTAS",
    "zone_id": "PRT1"
  },
  "AANT2": {
    "stop_code": "AANT2",
    "stop_lat": "41.1631943937472",
    "stop_lon": "-8.58580556145573",
    "stop_name": "ALAMEDA DAS ANTAS",
    "zone_id": "PRT1"
  },
  "AANT5": {
    "stop_code": "AANT5",
    "stop_lat": "41.163200050617",
    "stop_lon": "-8.58340391200963",
    "stop_name": "ALAMEDA DAS ANTAS",
    "zone_id": "PRT1"
  },
  "AAS1": {
    "stop_code": "AAS1",
    "stop_lat": "41.1673700766117",
    "stop_lon": "-8.55877913579623",
    "stop_name": "ANTÓNIO  AUG.SILVA",
    "zone_id": "GDM1"
  },
  "AAS2": {
    "stop_code": "AAS2",
    "stop_lat": "41.1676110986825",
    "stop_lon": "-8.5580555095991",
    "stop_name": "ANTÓNIO  AUG.SILVA",
    "zone_id": "GDM1"
  },
  "AAX1": {
    "stop_code": "AAX1",
    "stop_lat": "41.218492622243",
    "stop_lon": "-8.61398454872849",
    "stop_name": "ANTONIO ALEIXO",
    "zone_id": "MAI1"
  },
  "AAX2": {
    "stop_code": "AAX2",
    "stop_lat": "41.218450675115",
    "stop_lon": "-8.61417515878348",
    "stop_name": "ANTONIO ALEIXO",
    "zone_id": "MAI1"
  },
  "ABL1": {
    "stop_code": "ABL1",
    "stop_lat": "41.2062222311028",
    "stop_lon": "-8.66566665311343",
    "stop_name": "ABELHEIRA",
    "zone_id": "MTS1"
  },
  "ABL2": {
    "stop_code": "ABL2",
    "stop_lat": "41.2061663338881",
    "stop_lon": "-8.6658762765348",
    "stop_name": "ABELHEIRA",
    "zone_id": "MTS1"
  },
  "ABM1": {
    "stop_code": "ABM1",
    "stop_lat": "41.1671944068014",
    "stop_lon": "-8.65461110758549",
    "stop_name": "ALBERTO MACEDO",
    "zone_id": "PRT2"
  },
  "ABM2": {
    "stop_code": "ABM2",
    "stop_lat": "41.1670277743462",
    "stop_lon": "-8.65458333077541",
    "stop_name": "ALBERTO MACEDO",
    "zone_id": "PRT2"
  },
  "ABMG1": {
    "stop_code": "ABMG1",
    "stop_lat": "41.2142317729177",
    "stop_lon": "-8.69398374333635",
    "stop_name": "ABADE MONDEGO",
    "zone_id": "MTS2"
  },
  "ABMG2": {
    "stop_code": "ABMG2",
    "stop_lat": "41.2144627566713",
    "stop_lon": "-8.69408886467499",
    "stop_name": "ABADE MONDEGO",
    "zone_id": "MTS2"
  },
  "ABSS1": {
    "stop_code": "ABSS1",
    "stop_lat": "41.1652793149154",
    "stop_lon": "-8.64309026465875",
    "stop_name": "AV. DO BESSA",
    "zone_id": "PRT1"
  },
  "ABSS2": {
    "stop_code": "ABSS2",
    "stop_lat": "41.1650355311356",
    "stop_lon": "-8.64313960565853",
    "stop_name": "AV. DO BESSA",
    "zone_id": "PRT1"
  },
  "ABVT1": {
    "stop_code": "ABVT1",
    "stop_lat": "41.1627999894611",
    "stop_lon": "-8.66342341982453",
    "stop_name": "AV.DA BOAVISTA",
    "zone_id": "PRT2"
  },
  "ABVT2": {
    "stop_code": "ABVT2",
    "stop_lat": "41.1629721782296",
    "stop_lon": "-8.66322225860359",
    "stop_name": "AV.DA BOAVISTA",
    "zone_id": "PRT2"
  },
  "ABX1": {
    "stop_code": "ABX1",
    "stop_lat": "41.2200833186916",
    "stop_lon": "-8.67163890083634",
    "stop_name": "ALDEIA  BAIXO",
    "zone_id": "MTS2"
  },
  "ABX2": {
    "stop_code": "ABX2",
    "stop_lat": "41.219972167625",
    "stop_lon": "-8.67166660749845",
    "stop_name": "ALDEIA DE BAIXO",
    "zone_id": "MTS2"
  },
  "AC3": {
    "stop_code": "AC3",
    "stop_lat": "41.2394447127782",
    "stop_lon": "-8.62143897913891",
    "stop_name": "ALTINO  COELHO",
    "zone_id": "MAI1"
  },
  "AC4": {
    "stop_code": "AC4",
    "stop_lat": "41.2394529558137",
    "stop_lon": "-8.62161797174875",
    "stop_name": "ALTINO  COELHO",
    "zone_id": "MAI1"
  },
  "ACAR": {
    "stop_code": "ACAR",
    "stop_lat": "41.1771944199618",
    "stop_lon": "-8.67575000042475",
    "stop_name": "ANTÓNIO  CARNEIRO",
    "zone_id": "MTS1"
  },
  "ACB1": {
    "stop_code": "ACB1",
    "stop_lat": "41.1318661786014",
    "stop_lon": "-8.66324966193015",
    "stop_name": "AREIAS CABEDELO",
    "zone_id": "VNG5"
  },
  "ACB2": {
    "stop_code": "ACB2",
    "stop_lat": "41.1317998728994",
    "stop_lon": "-8.66308132622226",
    "stop_name": "AREIAS CABEDELO",
    "zone_id": "VNG5"
  },
  "ACBL2": {
    "stop_code": "ACBL2",
    "stop_lat": "41.085718202561",
    "stop_lon": "-8.65571402808569",
    "stop_name": "ÁLVARES CABRAL",
    "zone_id": "VNG4"
  },
  "ACD1": {
    "stop_code": "ACD1",
    "stop_lat": "41.1788055212949",
    "stop_lon": "-8.68488883997789",
    "stop_name": "AFONSO CORDEIRO",
    "zone_id": "MTS1"
  },
  "ACD3": {
    "stop_code": "ACD3",
    "stop_lat": "41.1803323891564",
    "stop_lon": "-8.68703655203697",
    "stop_name": "AFONSO CORDEIRO",
    "zone_id": "MTS1"
  },
  "ACDR1": {
    "stop_code": "ACDR1",
    "stop_lat": "41.1092778043672",
    "stop_lon": "-8.60894447068579",
    "stop_name": "ALAM. CEDRO",
    "zone_id": "VNG1"
  },
  "ACDR2": {
    "stop_code": "ACDR2",
    "stop_lat": "41.1095277995655",
    "stop_lon": "-8.60880556068127",
    "stop_name": "ALAMEDA CEDRO",
    "zone_id": "VNG1"
  },
  "ACH1": {
    "stop_code": "ACH1",
    "stop_lat": "41.1116852613415",
    "stop_lon": "-8.65389581903023",
    "stop_name": "ALTO CHAQUEDAS",
    "zone_id": "VNG4"
  },
  "ACH2": {
    "stop_code": "ACH2",
    "stop_lat": "41.1120955061543",
    "stop_lon": "-8.65277993738916",
    "stop_name": "ALTO CHAQUEDAS",
    "zone_id": "VNG4"
  },
  "ACN1": {
    "stop_code": "ACN1",
    "stop_lat": "41.1644783345992",
    "stop_lon": "-8.61047041742102",
    "stop_name": "ANTÓNIO CÂNDIDO",
    "zone_id": "PRT1"
  },
  "ACNT1": {
    "stop_code": "ACNT1",
    "stop_lat": "41.0975790994891",
    "stop_lon": "-8.63485831407449",
    "stop_name": "ALBERTO O CANTADOR",
    "zone_id": "VNG4"
  },
  "ACNT2": {
    "stop_code": "ACNT2",
    "stop_lat": "41.0977055198647",
    "stop_lon": "-8.63477595700109",
    "stop_name": "ALBERTO O CANTADOR",
    "zone_id": "VNG4"
  },
  "ACO2": {
    "stop_code": "ACO2",
    "stop_lat": "41.1769708494976",
    "stop_lon": "-8.58538176558081",
    "stop_name": "ANTÓNIO COELHO",
    "zone_id": "PRT3"
  },
  "ACRD1": {
    "stop_code": "ACRD1",
    "stop_lat": "41.1598429859494",
    "stop_lon": "-8.63991837818518",
    "stop_name": "ANTÓNIO CARDOSO",
    "zone_id": "PRT1"
  },
  "ACRD2": {
    "stop_code": "ACRD2",
    "stop_lat": "41.1596101652421",
    "stop_lon": "-8.63989132226471",
    "stop_name": "ANTÓNIO CARDOSO",
    "zone_id": "PRT1"
  },
  "ACST2": {
    "stop_code": "ACST2",
    "stop_lat": "41.1665316514103",
    "stop_lon": "-8.60165822807054",
    "stop_name": "ÁLVARO CASTELÕES",
    "zone_id": "PRT1"
  },
  "ADA2": {
    "stop_code": "ADA2",
    "stop_lat": "41.1718796759161",
    "stop_lon": "-8.6144769681214",
    "stop_name": "ARCA D ÁGUA",
    "zone_id": "PRT1"
  },
  "ADA3": {
    "stop_code": "ADA3",
    "stop_lat": "41.1707259025861",
    "stop_lon": "-8.61296300089565",
    "stop_name": "ARCA D ÁGUA",
    "zone_id": "PRT1"
  },
  "ADA4": {
    "stop_code": "ADA4",
    "stop_lat": "41.1707909248141",
    "stop_lon": "-8.61274457446145",
    "stop_name": "ARCA D ÁGUA",
    "zone_id": "PRT1"
  },
  "ADM1": {
    "stop_code": "ADM1",
    "stop_lat": "41.2391110614299",
    "stop_lon": "-8.66027780088345",
    "stop_name": "ALTINO DOMINGUES MOREIRA",
    "zone_id": "VCD8"
  },
  "ADNV1": {
    "stop_code": "ADNV1",
    "stop_lat": "41.2296216079737",
    "stop_lon": "-8.52763169539429",
    "stop_name": "ALDEIA NOVA",
    "zone_id": "VLG2"
  },
  "ADNV2": {
    "stop_code": "ADNV2",
    "stop_lat": "41.2294224134336",
    "stop_lon": "-8.52795252163521",
    "stop_name": "ALDEIA NOVA",
    "zone_id": "VLG2"
  },
  "AEC1": {
    "stop_code": "AEC1",
    "stop_lat": "41.1362691327522",
    "stop_lon": "-8.62804796328687",
    "stop_name": "ALAM.EMPRESA",
    "zone_id": "VNG1"
  },
  "AEC2": {
    "stop_code": "AEC2",
    "stop_lat": "41.1361745703309",
    "stop_lon": "-8.62794744490995",
    "stop_name": "ALAM.EMPRESA",
    "zone_id": "VNG1"
  },
  "AEP": {
    "stop_code": "AEP",
    "stop_lat": "41.1956163547271",
    "stop_lon": "-8.69026577029429",
    "stop_name": "ASSOC. EMP. PORTUGAL",
    "zone_id": "MTS2"
  },
  "AEP1": {
    "stop_code": "AEP1",
    "stop_lat": "41.1955886241216",
    "stop_lon": "-8.69043242523022",
    "stop_name": "ASSOC. EMP. PORTUGAL",
    "zone_id": "MTS2"
  },
  "AEPT1": {
    "stop_code": "AEPT1",
    "stop_lat": "41.2368854281243",
    "stop_lon": "-8.67032578070429",
    "stop_name": "AEROPORTO",
    "zone_id": "VCD8"
  },
  "AF1": {
    "stop_code": "AF1",
    "stop_lat": "41.1836944352575",
    "stop_lon": "-8.48397219684882",
    "stop_name": "ÁGUAS FERREAS",
    "zone_id": "VLG1"
  },
  "AF2": {
    "stop_code": "AF2",
    "stop_lat": "41.184309752907",
    "stop_lon": "-8.48495342623466",
    "stop_name": "ÁGUAS FERREAS",
    "zone_id": "VLG1"
  },
  "AFEI1": {
    "stop_code": "AFEI1",
    "stop_lat": "41.1855120541983",
    "stop_lon": "-8.58148406853441",
    "stop_name": "AREOSA (FEIRA)",
    "zone_id": "MAI4"
  },
  "AFEI2": {
    "stop_code": "AFEI2",
    "stop_lat": "41.1860241173746",
    "stop_lon": "-8.58130127612344",
    "stop_name": "AREOSA (FEIRA)",
    "zone_id": "MAI4"
  },
  "AFHQ3": {
    "stop_code": "AFHQ3",
    "stop_lat": "41.1806435897497",
    "stop_lon": "-8.6832655687279",
    "stop_name": "AFONSO  HENRIQUES",
    "zone_id": "MTS1"
  },
  "AGAS1": {
    "stop_code": "AGAS1",
    "stop_lat": "41.1877499606074",
    "stop_lon": "-8.52491671259798",
    "stop_name": "AGOST. A. SOUSA",
    "zone_id": "GDM1"
  },
  "AGAS2": {
    "stop_code": "AGAS2",
    "stop_lat": "41.1872533559462",
    "stop_lon": "-8.52494938190223",
    "stop_name": "AGOSTINHO A. SOUSA",
    "zone_id": "GDM1"
  },
  "AGM1": {
    "stop_code": "AGM1",
    "stop_lat": "41.1589479051451",
    "stop_lon": "-8.63459526400112",
    "stop_name": "AGRAMONTE",
    "zone_id": "PRT1"
  },
  "AGM2": {
    "stop_code": "AGM2",
    "stop_lat": "41.1586890734198",
    "stop_lon": "-8.63444150104811",
    "stop_name": "AGRAMONTE",
    "zone_id": "PRT1"
  },
  "AGN": {
    "stop_code": "AGN",
    "stop_lat": "41.1856110742332",
    "stop_lon": "-8.48599998990452",
    "stop_name": "AGUIAR NOGUEIRA",
    "zone_id": "VLG1"
  },
  "AGOM1": {
    "stop_code": "AGOM1",
    "stop_lat": "41.1235277199274",
    "stop_lon": "-8.63377772353843",
    "stop_name": "AUGUSTO GOMES",
    "zone_id": "VNG1"
  },
  "AGR1": {
    "stop_code": "AGR1",
    "stop_lat": "41.2126791511314",
    "stop_lon": "-8.59444942711752",
    "stop_name": "AGRA",
    "zone_id": "MAI4"
  },
  "AGR2": {
    "stop_code": "AGR2",
    "stop_lat": "41.2124201378968",
    "stop_lon": "-8.59457471084192",
    "stop_name": "AGRA",
    "zone_id": "MAI4"
  },
  "AGR3": {
    "stop_code": "AGR3",
    "stop_lat": "41.2140637721613",
    "stop_lon": "-8.5948854678045",
    "stop_name": "ROT.AGRA",
    "zone_id": "MAI4"
  },
  "AGR4": {
    "stop_code": "AGR4",
    "stop_lat": "41.2140391561923",
    "stop_lon": "-8.59462522900945",
    "stop_name": "ROT.AGRA",
    "zone_id": "MAI4"
  },
  "AGRO1": {
    "stop_code": "AGRO1",
    "stop_lat": "41.1363258527253",
    "stop_lon": "-8.62626926949363",
    "stop_name": "AGRO",
    "zone_id": "VNG1"
  },
  "AGRO2": {
    "stop_code": "AGRO2",
    "stop_lat": "41.136020182239",
    "stop_lon": "-8.6250869336816",
    "stop_name": "AGRO",
    "zone_id": "VNG1"
  },
  "AGU1": {
    "stop_code": "AGU1",
    "stop_lat": "41.1083944094223",
    "stop_lon": "-8.63666705634378",
    "stop_name": "AGUIM",
    "zone_id": "VNG4"
  },
  "AGU2": {
    "stop_code": "AGU2",
    "stop_lat": "41.1086395513425",
    "stop_lon": "-8.63620463755634",
    "stop_name": "AGUIM",
    "zone_id": "VNG4"
  },
  "AH": {
    "stop_code": "AH",
    "stop_lat": "41.1356831145201",
    "stop_lon": "-8.63240293544469",
    "stop_name": "ALEX. HERCULANO",
    "zone_id": "VNG1"
  },
  "AHRQ1": {
    "stop_code": "AHRQ1",
    "stop_lat": "41.2357313065116",
    "stop_lon": "-8.53659074608583",
    "stop_name": "D.AFONSO HENRIQUES",
    "zone_id": "VLG2"
  },
  "AHRQ2": {
    "stop_code": "AHRQ2",
    "stop_lat": "41.2362625399204",
    "stop_lon": "-8.53659402248078",
    "stop_name": "AFONSO HENRIQUES",
    "zone_id": "VLG2"
  },
  "AJA1": {
    "stop_code": "AJA1",
    "stop_lat": "41.2077500124295",
    "stop_lon": "-8.6473333114248",
    "stop_name": "PIAS (METRO)",
    "zone_id": "MAI1"
  },
  "AJA2": {
    "stop_code": "AJA2",
    "stop_lat": "41.2076389080856",
    "stop_lon": "-8.64688890565368",
    "stop_name": "PIAS (METRO)",
    "zone_id": "MAI1"
  },
  "AKI1": {
    "stop_code": "AKI1",
    "stop_lat": "41.1221944135868",
    "stop_lon": "-8.62494448069821",
    "stop_name": "AKI",
    "zone_id": "VNG1"
  },
  "AKI2": {
    "stop_code": "AKI2",
    "stop_lat": "41.1221111237972",
    "stop_lon": "-8.62494445273721",
    "stop_name": "AKI",
    "zone_id": "VNG1"
  },
  "AL3": {
    "stop_code": "AL3",
    "stop_lat": "41.1473646177743",
    "stop_lon": "-8.61147403739939",
    "stop_name": "AV. ALIADOS",
    "zone_id": "PRT1"
  },
  "AL7": {
    "stop_code": "AL7",
    "stop_lat": "41.1481552258623",
    "stop_lon": "-8.61135805535354",
    "stop_name": "AV. ALIADOS",
    "zone_id": "PRT1"
  },
  "ALCF1": {
    "stop_code": "ALCF1",
    "stop_lat": "41.1712301394046",
    "stop_lon": "-8.66695801182435",
    "stop_name": "ALCAIDE FARIA",
    "zone_id": "PRT2"
  },
  "ALD1": {
    "stop_code": "ALD1",
    "stop_lat": "41.1709479175264",
    "stop_lon": "-8.67067312266301",
    "stop_name": "ALDOAR JUNTA  FREG.",
    "zone_id": "PRT2"
  },
  "ALD2": {
    "stop_code": "ALD2",
    "stop_lat": "41.1708471737804",
    "stop_lon": "-8.67051619415203",
    "stop_name": "ALDOAR JUNTA  FREG.",
    "zone_id": "PRT2"
  },
  "ALDN1": {
    "stop_code": "ALDN1",
    "stop_lat": "41.2246565749832",
    "stop_lon": "-8.71071064733448",
    "stop_name": "ALDEIA NOVA",
    "zone_id": "MTS2"
  },
  "ALDN2": {
    "stop_code": "ALDN2",
    "stop_lat": "41.2245832856663",
    "stop_lon": "-8.71088889130395",
    "stop_name": "ALDEIA NOVA",
    "zone_id": "MTS2"
  },
  "ALF": {
    "stop_code": "ALF",
    "stop_lat": "41.2407578309642",
    "stop_lon": "-8.52556357064926",
    "stop_name": "ALFENA",
    "zone_id": "VLG2"
  },
  "ALFC1": {
    "stop_code": "ALFC1",
    "stop_lat": "41.1840277570099",
    "stop_lon": "-8.68380550160108",
    "stop_name": "ALFREDO CUNHA",
    "zone_id": "MTS1"
  },
  "ALFC2": {
    "stop_code": "ALFC2",
    "stop_lat": "41.1843611266511",
    "stop_lon": "-8.68430554955559",
    "stop_name": "ALFREDO CUNHA",
    "zone_id": "MTS1"
  },
  "ALFG1": {
    "stop_code": "ALFG1",
    "stop_lat": "41.1438423528567",
    "stop_lon": "-8.6219720971298",
    "stop_name": "ALFÂNDEGA",
    "zone_id": "PRT1"
  },
  "ALFG5": {
    "stop_code": "ALFG5",
    "stop_lat": "41.1437512039268",
    "stop_lon": "-8.6222320395788",
    "stop_name": "ALFÂNDEGA",
    "zone_id": "PRT1"
  },
  "ALFK2": {
    "stop_code": "ALFK2",
    "stop_lat": "41.1567184488225",
    "stop_lon": "-8.66614434908023",
    "stop_name": "ALFREDO KEIL",
    "zone_id": "PRT2"
  },
  "ALFN1": {
    "stop_code": "ALFN1",
    "stop_lat": "41.2403890763048",
    "stop_lon": "-8.52544206866777",
    "stop_name": "ALFENA",
    "zone_id": "VLG2"
  },
  "ALFN2": {
    "stop_code": "ALFN2",
    "stop_lat": "41.2410342628011",
    "stop_lon": "-8.52666687697386",
    "stop_name": "ALFENA",
    "zone_id": "VLG2"
  },
  "ALFN3": {
    "stop_code": "ALFN3",
    "stop_lat": "41.2407057376023",
    "stop_lon": "-8.52762697304943",
    "stop_name": "ALFENA",
    "zone_id": "VLG2"
  },
  "ALM1": {
    "stop_code": "ALM1",
    "stop_lat": "41.1416443583199",
    "stop_lon": "-8.59898715411328",
    "stop_name": "ALAMEDA",
    "zone_id": "PRT1"
  },
  "ALM2": {
    "stop_code": "ALM2",
    "stop_lat": "41.141699912796",
    "stop_lon": "-8.59943159089313",
    "stop_name": "ALAMEDA",
    "zone_id": "PRT1"
  },
  "ALMG1": {
    "stop_code": "ALMG1",
    "stop_lat": "41.2081695744729",
    "stop_lon": "-8.69625983342226",
    "stop_name": "ALMEIRIGA",
    "zone_id": "MTS2"
  },
  "ALMG2": {
    "stop_code": "ALMG2",
    "stop_lat": "41.208190743228",
    "stop_lon": "-8.69646008394596",
    "stop_name": "ALMEIRIGA",
    "zone_id": "MTS2"
  },
  "ALNV1": {
    "stop_code": "ALNV1",
    "stop_lat": "41.10066227802",
    "stop_lon": "-8.64827336918796",
    "stop_name": "ALDEIA NOVA",
    "zone_id": "VNG4"
  },
  "ALNV2": {
    "stop_code": "ALNV2",
    "stop_lat": "41.1005010588714",
    "stop_lon": "-8.64808164960715",
    "stop_name": "ALDEIA NOVA",
    "zone_id": "VNG4"
  },
  "ALPR1": {
    "stop_code": "ALPR1",
    "stop_lat": "41.1242777670997",
    "stop_lon": "-8.61627781515718",
    "stop_name": "ALFÉRES PEREIRA",
    "zone_id": "VNG1"
  },
  "ALRD1": {
    "stop_code": "ALRD1",
    "stop_lat": "41.1091719660357",
    "stop_lon": "-8.61740360975075",
    "stop_name": "ALVES REDOL",
    "zone_id": "VNG1"
  },
  "ALRD2": {
    "stop_code": "ALRD2",
    "stop_lat": "41.1090886218047",
    "stop_lon": "-8.61745918797418",
    "stop_name": "ALVES REDOL",
    "zone_id": "VNG1"
  },
  "ALT1": {
    "stop_code": "ALT1",
    "stop_lat": "41.2369053026049",
    "stop_lon": "-8.61295095493134",
    "stop_name": " ALTOS",
    "zone_id": "MAI1"
  },
  "ALT2": {
    "stop_code": "ALT2",
    "stop_lat": "41.2369512186487",
    "stop_lon": "-8.61273658239312",
    "stop_name": " ALTOS",
    "zone_id": "MAI1"
  },
  "ALUM1": {
    "stop_code": "ALUM1",
    "stop_lat": "41.1325818375377",
    "stop_lon": "-8.65244174540579",
    "stop_name": "ALUMIARA",
    "zone_id": "VNG5"
  },
  "ALUM2": {
    "stop_code": "ALUM2",
    "stop_lat": "41.131378976294",
    "stop_lon": "-8.65361124231506",
    "stop_name": "ALUMIARA",
    "zone_id": "VNG5"
  },
  "ALVC": {
    "stop_code": "ALVC",
    "stop_lat": "41.1833598319303",
    "stop_lon": "-8.68797865281496",
    "stop_name": "ÁLVARO CASTELÕES",
    "zone_id": "MTS1"
  },
  "ALVS1": {
    "stop_code": "ALVS1",
    "stop_lat": "41.2241388411701",
    "stop_lon": "-8.69516670706868",
    "stop_name": "JOAQUIM ALVES SILVA",
    "zone_id": "MTS2"
  },
  "ALVS2": {
    "stop_code": "ALVS2",
    "stop_lat": "41.2239166223069",
    "stop_lon": "-8.69505555904699",
    "stop_name": "JOAQUIM ALVES SILVA",
    "zone_id": "MTS2"
  },
  "ALVT2": {
    "stop_code": "ALVT2",
    "stop_lat": "41.175104218335",
    "stop_lon": "-8.60947806697541",
    "stop_name": "ALMEIDA VALENTE",
    "zone_id": "PRT3"
  },
  "ALX1": {
    "stop_code": "ALX1",
    "stop_lat": "41.1525703035429",
    "stop_lon": "-8.64949303570612",
    "stop_name": "ALEIXO",
    "zone_id": "PRT2"
  },
  "ALX2": {
    "stop_code": "ALX2",
    "stop_lat": "41.1516889163678",
    "stop_lon": "-8.64938389181503",
    "stop_name": "ALEIXO",
    "zone_id": "PRT2"
  },
  "ALXH1": {
    "stop_code": "ALXH1",
    "stop_lat": "41.242510865043",
    "stop_lon": "-8.523736975289",
    "stop_name": "ALEX. HERCULANO",
    "zone_id": "VLG2"
  },
  "ALXH2": {
    "stop_code": "ALXH2",
    "stop_lat": "41.242682346149",
    "stop_lon": "-8.52361870606202",
    "stop_name": "ALEX. HERCULANO",
    "zone_id": "VLG2"
  },
  "ALXH3": {
    "stop_code": "ALXH3",
    "stop_lat": "41.1442427332737",
    "stop_lon": "-8.60525018060673",
    "stop_name": "ALEX. HERCULANO",
    "zone_id": "PRT1"
  },
  "AM1": {
    "stop_code": "AM1",
    "stop_lat": "41.2064459489599",
    "stop_lon": "-8.56725444149142",
    "stop_name": "ALTO DA MAIA",
    "zone_id": "MAI4"
  },
  "AM2": {
    "stop_code": "AM2",
    "stop_lat": "41.2076165096426",
    "stop_lon": "-8.56725027713085",
    "stop_name": "ALTO DA MAIA",
    "zone_id": "MAI4"
  },
  "AM3": {
    "stop_code": "AM3",
    "stop_lat": "41.2065709404579",
    "stop_lon": "-8.56567597866879",
    "stop_name": "ALTO DA MAIA",
    "zone_id": "MAI4"
  },
  "AM4": {
    "stop_code": "AM4",
    "stop_lat": "41.2068819417685",
    "stop_lon": "-8.56629801994076",
    "stop_name": "ALTO DA MAIA",
    "zone_id": "MAI4"
  },
  "AML1": {
    "stop_code": "AML1",
    "stop_lat": "41.1824995139562",
    "stop_lon": "-8.61342791251281",
    "stop_name": "AMIAL",
    "zone_id": "PRT3"
  },
  "AML2": {
    "stop_code": "AML2",
    "stop_lat": "41.1831689574214",
    "stop_lon": "-8.61280780875037",
    "stop_name": "AMIAL",
    "zone_id": "PRT3"
  },
  "AML3": {
    "stop_code": "AML3",
    "stop_lat": "41.1836118917206",
    "stop_lon": "-8.61239389794445",
    "stop_name": "AMIAL",
    "zone_id": "PRT3"
  },
  "AML4": {
    "stop_code": "AML4",
    "stop_lat": "41.1840645242373",
    "stop_lon": "-8.61340957950204",
    "stop_name": "AMIAL",
    "zone_id": "MAI1"
  },
  "AMR1": {
    "stop_code": "AMR1",
    "stop_lat": "41.2021666141735",
    "stop_lon": "-8.69669443734026",
    "stop_name": "AMOROSA",
    "zone_id": "MTS2"
  },
  "AMR2": {
    "stop_code": "AMR2",
    "stop_lat": "41.2021512427625",
    "stop_lon": "-8.69683605710866",
    "stop_name": "AMOROSA",
    "zone_id": "MTS2"
  },
  "AMR3": {
    "stop_code": "AMR3",
    "stop_lat": "41.2006441235635",
    "stop_lon": "-8.69637698815368",
    "stop_name": "AMOROSA",
    "zone_id": "MTS2"
  },
  "AMRQ2": {
    "stop_code": "AMRQ2",
    "stop_lat": "41.2385706459959",
    "stop_lon": "-8.61298726070368",
    "stop_name": "ANTÓNIO MARQUES",
    "zone_id": "MAI1"
  },
  "AMRQ3": {
    "stop_code": "AMRQ3",
    "stop_lat": "41.2386585621846",
    "stop_lon": "-8.61356023947225",
    "stop_name": "ANTÓNIO MARQUES",
    "zone_id": "MAI1"
  },
  "AMSE": {
    "stop_code": "AMSE",
    "stop_lat": "41.0983500552972",
    "stop_lon": "-8.6231276665419",
    "stop_name": "A.SANTOS (ESCOLAS)",
    "zone_id": "VNG4"
  },
  "ANG": {
    "stop_code": "ANG",
    "stop_lat": "41.1223332741421",
    "stop_lon": "-8.60588886222303",
    "stop_name": "ANGOLA",
    "zone_id": "VNG1"
  },
  "ANT1": {
    "stop_code": "ANT1",
    "stop_lat": "41.165305556698",
    "stop_lon": "-8.58880550503584",
    "stop_name": "ANTAS (L. CIDADÃO)",
    "zone_id": "PRT1"
  },
  "ANT2": {
    "stop_code": "ANT2",
    "stop_lat": "41.1649271601554",
    "stop_lon": "-8.58917808709332",
    "stop_name": "ANTAS (L. CIDADÃO)",
    "zone_id": "PRT1"
  },
  "ANTG1": {
    "stop_code": "ANTG1",
    "stop_lat": "41.1705276036871",
    "stop_lon": "-8.65569933370543",
    "stop_name": "ANTUNES GUIMARÃES",
    "zone_id": "PRT2"
  },
  "ANTZ1": {
    "stop_code": "ANTZ1",
    "stop_lat": "41.2416226756524",
    "stop_lon": "-8.61098144961953",
    "stop_name": "ANTUNES AZEVEDO",
    "zone_id": "MAI3"
  },
  "ANTZ2": {
    "stop_code": "ANTZ2",
    "stop_lat": "41.2415694960457",
    "stop_lon": "-8.61077826609404",
    "stop_name": "ANTUNES AZEVEDO",
    "zone_id": "MAI3"
  },
  "ANV1": {
    "stop_code": "ANV1",
    "stop_lat": "41.2203610951943",
    "stop_lon": "-8.58677775443718",
    "stop_name": "ALDEIA NOVA",
    "zone_id": "MAI4"
  },
  "ANV2": {
    "stop_code": "ANV2",
    "stop_lat": "41.2212221995731",
    "stop_lon": "-8.58647222842591",
    "stop_name": "ALDEIA NOVA",
    "zone_id": "MAI4"
  },
  "AP1": {
    "stop_code": "AP1",
    "stop_lat": "41.1880555087479",
    "stop_lon": "-8.64452772277846",
    "stop_name": "ANTÓNIO PEDRO",
    "zone_id": "MAI1"
  },
  "AP2": {
    "stop_code": "AP2",
    "stop_lat": "41.188121014253",
    "stop_lon": "-8.64524542475136",
    "stop_name": "ANTÓNIO PEDRO",
    "zone_id": "MAI1"
  },
  "APDL2": {
    "stop_code": "APDL2",
    "stop_lat": "41.1879496373083",
    "stop_lon": "-8.70326569241617",
    "stop_name": "APDL",
    "zone_id": "MTS2"
  },
  "APRD1": {
    "stop_code": "APRD1",
    "stop_lat": "41.1266671630726",
    "stop_lon": "-8.62512490655616",
    "stop_name": "ARCO DO PRADO",
    "zone_id": "VNG1"
  },
  "APRD2": {
    "stop_code": "APRD2",
    "stop_lat": "41.1270832933353",
    "stop_lon": "-8.6246944389439",
    "stop_name": "ARCO DO PRADO",
    "zone_id": "VNG1"
  },
  "APRD3": {
    "stop_code": "APRD3",
    "stop_lat": "41.1267136648625",
    "stop_lon": "-8.62482111682007",
    "stop_name": "ARCO DO PRADO",
    "zone_id": "VNG1"
  },
  "APT1": {
    "stop_code": "APT1",
    "stop_lat": "41.1591421975883",
    "stop_lon": "-8.64091494817787",
    "stop_name": "ANTÓNIO PATRÍCIO",
    "zone_id": "PRT1"
  },
  "APT3": {
    "stop_code": "APT3",
    "stop_lat": "41.158671984914",
    "stop_lon": "-8.64057080611727",
    "stop_name": "ANTÓNIO PATRÍCIO",
    "zone_id": "PRT1"
  },
  "AQL1": {
    "stop_code": "AQL1",
    "stop_lat": "41.1626805106214",
    "stop_lon": "-8.61019700008461",
    "stop_name": "ANTERO DE QUENTAL",
    "zone_id": "PRT1"
  },
  "AQL2": {
    "stop_code": "AQL2",
    "stop_lat": "41.1616201051046",
    "stop_lon": "-8.61097088960214",
    "stop_name": "ANTERO DE QUENTAL",
    "zone_id": "PRT1"
  },
  "AQR1": {
    "stop_code": "AQR1",
    "stop_lat": "41.2454712149842",
    "stop_lon": "-8.61866851211381",
    "stop_name": "AQUILINO RIBEIRO",
    "zone_id": "MAI3"
  },
  "AQR2": {
    "stop_code": "AQR2",
    "stop_lat": "41.2451597081645",
    "stop_lon": "-8.61900071145828",
    "stop_name": "AQUILINO RIBEIRO",
    "zone_id": "MAI3"
  },
  "AR1": {
    "stop_code": "AR1",
    "stop_lat": "41.1940515991538",
    "stop_lon": "-8.60494445711185",
    "stop_name": "ALMIRANTE REIS",
    "zone_id": "MAI1"
  },
  "AR2": {
    "stop_code": "AR2",
    "stop_lat": "41.1942500037708",
    "stop_lon": "-8.60500000457906",
    "stop_name": "ALMIRANTE REIS",
    "zone_id": "MAI1"
  },
  "ARCO1": {
    "stop_code": "ARCO1",
    "stop_lat": "41.2137228333666",
    "stop_lon": "-8.60158856489549",
    "stop_name": "ARCO",
    "zone_id": "MAI1"
  },
  "ARCO2": {
    "stop_code": "ARCO2",
    "stop_lat": "41.2138299843773",
    "stop_lon": "-8.60147784106354",
    "stop_name": "ARCO",
    "zone_id": "MAI1"
  },
  "ARDG1": {
    "stop_code": "ARDG1",
    "stop_lat": "41.2259408496783",
    "stop_lon": "-8.56767078171048",
    "stop_name": "ARDEGÃES",
    "zone_id": "MAI4"
  },
  "ARDG2": {
    "stop_code": "ARDG2",
    "stop_lat": "41.2259999470443",
    "stop_lon": "-8.56780558352784",
    "stop_name": "ARDEGÃES",
    "zone_id": "MAI4"
  },
  "ARDG3": {
    "stop_code": "ARDG3",
    "stop_lat": "41.2273055361053",
    "stop_lon": "-8.56716664273819",
    "stop_name": "ARDEGÃES",
    "zone_id": "MAI4"
  },
  "ARDG4": {
    "stop_code": "ARDG4",
    "stop_lat": "41.2271944386687",
    "stop_lon": "-8.56680548644052",
    "stop_name": "ARDEGÃES",
    "zone_id": "MAI4"
  },
  "AREI": {
    "stop_code": "AREI",
    "stop_lat": "41.1593283626169",
    "stop_lon": "-8.55516996745548",
    "stop_name": "AREIAS",
    "zone_id": "PRT3"
  },
  "AREI2": {
    "stop_code": "AREI2",
    "stop_lat": "41.1591084955401",
    "stop_lon": "-8.55577748652738",
    "stop_name": "AREIAS",
    "zone_id": "PRT3"
  },
  "ARJ1": {
    "stop_code": "ARJ1",
    "stop_lat": "41.2193226110772",
    "stop_lon": "-8.63703264198062",
    "stop_name": "ARAÚJO",
    "zone_id": "MAI1"
  },
  "ARNH1": {
    "stop_code": "ARNH1",
    "stop_lat": "41.1444500309725",
    "stop_lon": "-8.57884813266298",
    "stop_name": "AREINHO",
    "zone_id": "PRT3"
  },
  "ARNH2": {
    "stop_code": "ARNH2",
    "stop_lat": "41.144338916263",
    "stop_lon": "-8.57870932399767",
    "stop_name": "AREINHO",
    "zone_id": "PRT3"
  },
  "ARR": {
    "stop_code": "ARR",
    "stop_lat": "41.1173333388937",
    "stop_lon": "-8.60955549119576",
    "stop_name": "ANTÓNIO R.ROCHA",
    "zone_id": "VNG1"
  },
  "ARRB1": {
    "stop_code": "ARRB1",
    "stop_lat": "41.1409804570725",
    "stop_lon": "-8.63506252558939",
    "stop_name": "ARRÁBIDASHOPPING",
    "zone_id": "VNG1"
  },
  "ARRB2": {
    "stop_code": "ARRB2",
    "stop_lat": "41.1391943968339",
    "stop_lon": "-8.63569442801924",
    "stop_name": "ARRÁBIDASHOPPING",
    "zone_id": "VNG1"
  },
  "ARRB3": {
    "stop_code": "ARRB3",
    "stop_lat": "41.1390555006817",
    "stop_lon": "-8.63549993825997",
    "stop_name": "ARRÁBIDASHOPPING",
    "zone_id": "VNG1"
  },
  "ARRG1": {
    "stop_code": "ARRG1",
    "stop_lat": "41.2164889417151",
    "stop_lon": "-8.58506479365456",
    "stop_name": "ARREGADAS",
    "zone_id": "MAI4"
  },
  "ARRG2": {
    "stop_code": "ARRG2",
    "stop_lat": "41.2168888933715",
    "stop_lon": "-8.58408329349735",
    "stop_name": "ARREGADAS",
    "zone_id": "MAI4"
  },
  "ARS2": {
    "stop_code": "ARS2",
    "stop_lat": "41.1802441063315",
    "stop_lon": "-8.58351581607596",
    "stop_name": "AREOSA",
    "zone_id": "PRT3"
  },
  "ARS3": {
    "stop_code": "ARS3",
    "stop_lat": "41.1806132698509",
    "stop_lon": "-8.58351835193312",
    "stop_name": "AREOSA",
    "zone_id": "PRT3"
  },
  "ARS5": {
    "stop_code": "ARS5",
    "stop_lat": "41.1815297455362",
    "stop_lon": "-8.5838792149962",
    "stop_name": "AREOSA",
    "zone_id": "PRT3"
  },
  "ARS7": {
    "stop_code": "ARS7",
    "stop_lat": "41.1814166223175",
    "stop_lon": "-8.58505559902462",
    "stop_name": "AREOSA",
    "zone_id": "MAI4"
  },
  "ARSF3": {
    "stop_code": "ARSF3",
    "stop_lat": "41.185264599109",
    "stop_lon": "-8.58220347011398",
    "stop_name": "AREOSA (FEIRA)",
    "zone_id": "MAI4"
  },
  "ARSF4": {
    "stop_code": "ARSF4",
    "stop_lat": "41.1851110618881",
    "stop_lon": "-8.58200003571528",
    "stop_name": "AREOSA (FEIRA)",
    "zone_id": "MAI4"
  },
  "ARSM1": {
    "stop_code": "ARSM1",
    "stop_lat": "41.182810696603",
    "stop_lon": "-8.58263598709325",
    "stop_name": "AREOSA (MERCADO)",
    "zone_id": "MAI4"
  },
  "ARSM2": {
    "stop_code": "ARSM2",
    "stop_lat": "41.1824253595303",
    "stop_lon": "-8.58294679888546",
    "stop_name": "AREOSA (MERCADO)",
    "zone_id": "MAI4"
  },
  "ARSM3": {
    "stop_code": "ARSM3",
    "stop_lat": "41.1825156042404",
    "stop_lon": "-8.58132865944502",
    "stop_name": "AREOSA (MERCADO)",
    "zone_id": "MAI4"
  },
  "ARSR1": {
    "stop_code": "ARSR1",
    "stop_lat": "41.1806499081304",
    "stop_lon": "-8.58124141741919",
    "stop_name": "ROT. DA AREOSA",
    "zone_id": "PRT3"
  },
  "ART5": {
    "stop_code": "ART5",
    "stop_lat": "41.1878650209292",
    "stop_lon": "-8.59626231440729",
    "stop_name": "ARROTEIA",
    "zone_id": "MAI4"
  },
  "ART6": {
    "stop_code": "ART6",
    "stop_lat": "41.1880200164938",
    "stop_lon": "-8.59618712524365",
    "stop_name": "ARROTEIA",
    "zone_id": "MAI4"
  },
  "ART7": {
    "stop_code": "ART7",
    "stop_lat": "41.1998055232624",
    "stop_lon": "-8.62202772505955",
    "stop_name": "ARROTEIA",
    "zone_id": "MAI1"
  },
  "ART8": {
    "stop_code": "ART8",
    "stop_lat": "41.1996666728682",
    "stop_lon": "-8.62194443078626",
    "stop_name": "ARROTEIA",
    "zone_id": "MAI1"
  },
  "AS1": {
    "stop_code": "AS1",
    "stop_lat": "41.2063888887572",
    "stop_lon": "-8.58336109389545",
    "stop_name": "ANTÓNIO SANTOS",
    "zone_id": "MAI4"
  },
  "AS2": {
    "stop_code": "AS2",
    "stop_lat": "41.2063055577853",
    "stop_lon": "-8.58355557696272",
    "stop_name": "ANTÓNIO SANTOS",
    "zone_id": "MAI4"
  },
  "ASOT1": {
    "stop_code": "ASOT1",
    "stop_lat": "41.1667186421845",
    "stop_lon": "-8.54767032628489",
    "stop_name": "ALTO DE SOUTELO",
    "zone_id": "GDM1"
  },
  "ASOT2": {
    "stop_code": "ASOT2",
    "stop_lat": "41.1662777493616",
    "stop_lon": "-8.54633336365587",
    "stop_name": "ALTO DE SOUTELO",
    "zone_id": "GDM1"
  },
  "ASOT3": {
    "stop_code": "ASOT3",
    "stop_lat": "41.1660555652127",
    "stop_lon": "-8.54697218016477",
    "stop_name": "ALTO DE SOUTELO",
    "zone_id": "GDM1"
  },
  "ASP2": {
    "stop_code": "ASP2",
    "stop_lat": "41.1783110179311",
    "stop_lon": "-8.6273765089751",
    "stop_name": "ALBERTO SAMPAIO",
    "zone_id": "PRT2"
  },
  "ASP3": {
    "stop_code": "ASP3",
    "stop_lat": "41.181681825509",
    "stop_lon": "-8.59543429694399",
    "stop_name": "ASPRELA",
    "zone_id": "PRT3"
  },
  "ASP4": {
    "stop_code": "ASP4",
    "stop_lat": "41.1821943964627",
    "stop_lon": "-8.59647218542059",
    "stop_name": "ASPRELA",
    "zone_id": "PRT3"
  },
  "ASRR1": {
    "stop_code": "ASRR1",
    "stop_lat": "41.1933262571496",
    "stop_lon": "-8.51813517641068",
    "stop_name": "ALTO DA SERRA",
    "zone_id": "GDM1"
  },
  "ASRR2": {
    "stop_code": "ASRR2",
    "stop_lat": "41.1949444386751",
    "stop_lon": "-8.51852781803167",
    "stop_name": "ALTO DA SERRA",
    "zone_id": "VLG1"
  },
  "ASRR3": {
    "stop_code": "ASRR3",
    "stop_lat": "41.1944999417581",
    "stop_lon": "-8.5181666312086",
    "stop_name": "ALTO DA SERRA",
    "zone_id": "VLG1"
  },
  "ASRR4": {
    "stop_code": "ASRR4",
    "stop_lat": "41.1930219819702",
    "stop_lon": "-8.51838347660733",
    "stop_name": "ALTO DA SERRA",
    "zone_id": "GDM1"
  },
  "AST1": {
    "stop_code": "AST1",
    "stop_lat": "41.2100792041703",
    "stop_lon": "-8.57794378017035",
    "stop_name": "ÁGUAS SANTAS",
    "zone_id": "MAI4"
  },
  "AST2": {
    "stop_code": "AST2",
    "stop_lat": "41.2101110613343",
    "stop_lon": "-8.57811104362749",
    "stop_name": "ÁGUAS SANTAS",
    "zone_id": "MAI4"
  },
  "ASZ1": {
    "stop_code": "ASZ1",
    "stop_lat": "41.2003443806984",
    "stop_lon": "-8.61175326708552",
    "stop_name": "ABEL SALAZAR",
    "zone_id": "MAI1"
  },
  "ASZ2": {
    "stop_code": "ASZ2",
    "stop_lat": "41.2002986655981",
    "stop_lon": "-8.61191983601168",
    "stop_name": "ABEL SALAZAR",
    "zone_id": "MAI1"
  },
  "ASZ3": {
    "stop_code": "ASZ3",
    "stop_lat": "41.199276436579",
    "stop_lon": "-8.60872934162257",
    "stop_name": "ABEL SALAZAR",
    "zone_id": "MAI1"
  },
  "ASZ4": {
    "stop_code": "ASZ4",
    "stop_lat": "41.200337023325",
    "stop_lon": "-8.60919006130959",
    "stop_name": "ABEL SALAZAR",
    "zone_id": "MAI1"
  },
  "ASZE1": {
    "stop_code": "ASZE1",
    "stop_lat": "41.1572044773958",
    "stop_lon": "-8.65273990186677",
    "stop_name": "PINTOR ARPAD SZENES",
    "zone_id": "PRT2"
  },
  "ATSR1": {
    "stop_code": "ATSR1",
    "stop_lat": "41.159925708305",
    "stop_lon": "-8.51797859070737",
    "stop_name": "ALTO DA SERRA",
    "zone_id": "GDM2"
  },
  "ATSR2": {
    "stop_code": "ATSR2",
    "stop_lat": "41.1599570570704",
    "stop_lon": "-8.51784009178338",
    "stop_name": "ALTO DA SERRA",
    "zone_id": "GDM2"
  },
  "AUL1": {
    "stop_code": "AUL1",
    "stop_lat": "41.1698333143402",
    "stop_lon": "-8.60249996929345",
    "stop_name": "AUGUSTO LESSA",
    "zone_id": "PRT1"
  },
  "AUL2": {
    "stop_code": "AUL2",
    "stop_lat": "41.1699770772427",
    "stop_lon": "-8.60250850512382",
    "stop_name": "AUGUSTO LESSA",
    "zone_id": "PRT1"
  },
  "AUS": {
    "stop_code": "AUS",
    "stop_lat": "41.1604215097422",
    "stop_lon": "-8.60058364507516",
    "stop_name": "ESC. AURÉLIA SOUSA",
    "zone_id": "PRT1"
  },
  "AV1": {
    "stop_code": "AV1",
    "stop_lat": "41.1839477667931",
    "stop_lon": "-8.6431345778562",
    "stop_name": "ALTO DO VISO",
    "zone_id": "PRT2"
  },
  "AVC1": {
    "stop_code": "AVC1",
    "stop_lat": "41.1684227743138",
    "stop_lon": "-8.60340882738872",
    "stop_name": "AVAL CIMA",
    "zone_id": "PRT1"
  },
  "AVC2": {
    "stop_code": "AVC2",
    "stop_lat": "41.1681846919066",
    "stop_lon": "-8.6035212741008",
    "stop_name": "AVAL CIMA",
    "zone_id": "PRT1"
  },
  "AVES1": {
    "stop_code": "AVES1",
    "stop_lat": "41.2092221955812",
    "stop_lon": "-8.68158327401393",
    "stop_name": "AVESSADA",
    "zone_id": "MTS2"
  },
  "AVES2": {
    "stop_code": "AVES2",
    "stop_lat": "41.20924995751",
    "stop_lon": "-8.6819166416169",
    "stop_name": "AVESSADA",
    "zone_id": "MTS2"
  },
  "AVF2": {
    "stop_code": "AVF2",
    "stop_lat": "41.1646167439743",
    "stop_lon": "-8.62586700155765",
    "stop_name": "AV.FRANÇA",
    "zone_id": "PRT1"
  },
  "AVLH2": {
    "stop_code": "AVLH2",
    "stop_lat": "41.1964722052177",
    "stop_lon": "-8.63849999880314",
    "stop_name": "AVILHÓ",
    "zone_id": "MAI1"
  },
  "AVLH3": {
    "stop_code": "AVLH3",
    "stop_lat": "41.1966388781346",
    "stop_lon": "-8.63988888352126",
    "stop_name": "AVILHÓ",
    "zone_id": "MAI1"
  },
  "AVLM1": {
    "stop_code": "AVLM1",
    "stop_lat": "41.2056652446421",
    "stop_lon": "-8.56112426229315",
    "stop_name": "AV.LIDADOR DA MAIA",
    "zone_id": "MAI4"
  },
  "AVLM2": {
    "stop_code": "AVLM2",
    "stop_lat": "41.2055917470049",
    "stop_lon": "-8.56139621348624",
    "stop_name": "AV.LIDADOR DA MAIA",
    "zone_id": "MAI4"
  },
  "AVM1": {
    "stop_code": "AVM1",
    "stop_lat": "41.1780822277535",
    "stop_lon": "-8.68920121155566",
    "stop_name": "AV. MENÉRES",
    "zone_id": "MTS1"
  },
  "AVTE1": {
    "stop_code": "AVTE1",
    "stop_lat": "41.176714084595",
    "stop_lon": "-8.61134219283112",
    "stop_name": "ALMEIDA VALENTE",
    "zone_id": "PRT3"
  },
  "AVTE2": {
    "stop_code": "AVTE2",
    "stop_lat": "41.176820022414",
    "stop_lon": "-8.61152530107003",
    "stop_name": "ALMEIDA VALENTE",
    "zone_id": "PRT3"
  },
  "AZ": {
    "stop_code": "AZ",
    "stop_lat": "41.1815885270773",
    "stop_lon": "-8.61371490528472",
    "stop_name": "AZENHA",
    "zone_id": "PRT3"
  },
  "AZC1": {
    "stop_code": "AZC1",
    "stop_lat": "41.1801702482421",
    "stop_lon": "-8.6606218767427",
    "stop_name": "AZENHA DE CIMA",
    "zone_id": "MTS1"
  },
  "AZC2": {
    "stop_code": "AZC2",
    "stop_lat": "41.1799400145464",
    "stop_lon": "-8.66022852136574",
    "stop_name": "AZENHA DE CIMA",
    "zone_id": "MTS1"
  },
  "AZC3": {
    "stop_code": "AZC3",
    "stop_lat": "41.177161397578",
    "stop_lon": "-8.66068086505923",
    "stop_name": "AZENHA DE CIMA",
    "zone_id": "PRT2"
  },
  "AZN1": {
    "stop_code": "AZN1",
    "stop_lat": "41.2073569477716",
    "stop_lon": "-8.60782224232852",
    "stop_name": "AZENHA NOVA",
    "zone_id": "MAI1"
  },
  "AZN2": {
    "stop_code": "AZN2",
    "stop_lat": "41.2077093810531",
    "stop_lon": "-8.60751479863108",
    "stop_name": "AZENHA NOVA",
    "zone_id": "MAI1"
  },
  "AZV": {
    "stop_code": "AZV",
    "stop_lat": "41.1516171981647",
    "stop_lon": "-8.56655738974504",
    "stop_name": "AZEVEDO",
    "zone_id": "PRT3"
  },
  "AZV1": {
    "stop_code": "AZV1",
    "stop_lat": "41.1515231928068",
    "stop_lon": "-8.56643823652951",
    "stop_name": "AZEVEDO",
    "zone_id": "PRT3"
  },
  "AZV2": {
    "stop_code": "AZV2",
    "stop_lat": "41.1517777397172",
    "stop_lon": "-8.56708333003631",
    "stop_name": "AZEVEDO",
    "zone_id": "PRT3"
  },
  "AZV3": {
    "stop_code": "AZV3",
    "stop_lat": "41.1519532290389",
    "stop_lon": "-8.56701289407437",
    "stop_name": "AZEVEDO",
    "zone_id": "PRT3"
  },
  "BAR1": {
    "stop_code": "BAR1",
    "stop_lat": "41.2249129217218",
    "stop_lon": "-8.69015688269032",
    "stop_name": "BARÃO",
    "zone_id": "MTS2"
  },
  "BAR2": {
    "stop_code": "BAR2",
    "stop_lat": "41.2244195837258",
    "stop_lon": "-8.69184474653081",
    "stop_name": "BARÃO",
    "zone_id": "MTS2"
  },
  "BARC1": {
    "stop_code": "BARC1",
    "stop_lat": "41.2468695384272",
    "stop_lon": "-8.60724986208185",
    "stop_name": "BARCA",
    "zone_id": "MAI3"
  },
  "BARC2": {
    "stop_code": "BARC2",
    "stop_lat": "41.2469497849667",
    "stop_lon": "-8.60744132535665",
    "stop_name": "BARCA",
    "zone_id": "MAI3"
  },
  "BARO1": {
    "stop_code": "BARO1",
    "stop_lat": "41.167897291531",
    "stop_lon": "-8.6695151846345",
    "stop_name": "BAIRRO ANT. AROSO",
    "zone_id": "PRT2"
  },
  "BARO2": {
    "stop_code": "BARO2",
    "stop_lat": "41.1683363689563",
    "stop_lon": "-8.6691611798055",
    "stop_name": "BAIRRO ANT. AROSO",
    "zone_id": "PRT2"
  },
  "BARR1": {
    "stop_code": "BARR1",
    "stop_lat": "41.233090711194",
    "stop_lon": "-8.5259306263577",
    "stop_name": "BARREIRA",
    "zone_id": "VLG2"
  },
  "BARR2": {
    "stop_code": "BARR2",
    "stop_lat": "41.2330576034812",
    "stop_lon": "-8.52605411675675",
    "stop_name": "BARREIRA",
    "zone_id": "VLG2"
  },
  "BAT1": {
    "stop_code": "BAT1",
    "stop_lat": "41.2061111248458",
    "stop_lon": "-8.69650003415757",
    "stop_name": "BATARIA",
    "zone_id": "MTS2"
  },
  "BAT2": {
    "stop_code": "BAT2",
    "stop_lat": "41.2058258123517",
    "stop_lon": "-8.69678777810732",
    "stop_name": "BATARIA",
    "zone_id": "MTS2"
  },
  "BBL": {
    "stop_code": "BBL",
    "stop_lat": "41.1576420804833",
    "stop_lon": "-8.6456426883844",
    "stop_name": "BAIRRO BESSA LEITE",
    "zone_id": "PRT1"
  },
  "BBL1": {
    "stop_code": "BBL1",
    "stop_lat": "41.1588551904807",
    "stop_lon": "-8.64415396131397",
    "stop_name": "BAIRRO BESSA LEITE",
    "zone_id": "PRT1"
  },
  "BCG": {
    "stop_code": "BCG",
    "stop_lat": "41.1636552366185",
    "stop_lon": "-8.61795859816389",
    "stop_name": "BCG",
    "zone_id": "PRT1"
  },
  "BCH1": {
    "stop_code": "BCH1",
    "stop_lat": "41.0934939526493",
    "stop_lon": "-8.64289238887988",
    "stop_name": "BICHEIROS",
    "zone_id": "VNG4"
  },
  "BCH2": {
    "stop_code": "BCH2",
    "stop_lat": "41.0934019599585",
    "stop_lon": "-8.64276336953826",
    "stop_name": "BICHEIROS",
    "zone_id": "VNG4"
  },
  "BCM1": {
    "stop_code": "BCM1",
    "stop_lat": "41.1589030350552",
    "stop_lon": "-8.62954202333796",
    "stop_name": "BOAVISTA-CASA DA MÚSICA",
    "zone_id": "PRT1"
  },
  "BCM2": {
    "stop_code": "BCM2",
    "stop_lat": "41.1597725544825",
    "stop_lon": "-8.62852468697102",
    "stop_name": "BOAVISTA-CASA DA MÚSICA",
    "zone_id": "PRT1"
  },
  "BCM3": {
    "stop_code": "BCM3",
    "stop_lat": "41.1594575409767",
    "stop_lon": "-8.628618576088",
    "stop_name": "BOAVISTA-CASA DA MÚSICA",
    "zone_id": "PRT1"
  },
  "BCM4": {
    "stop_code": "BCM4",
    "stop_lat": "41.1589457579588",
    "stop_lon": "-8.63017784612816",
    "stop_name": "BOAVISTA-CASA DA MÚSICA",
    "zone_id": "PRT1"
  },
  "BCM5": {
    "stop_code": "BCM5",
    "stop_lat": "41.1592966400697",
    "stop_lon": "-8.6288887666657",
    "stop_name": "BOAVISTA-CASA DA MÚSICA",
    "zone_id": "PRT1"
  },
  "BCNT": {
    "stop_code": "BCNT",
    "stop_lat": "41.1658301293161",
    "stop_lon": "-8.58074779384326",
    "stop_name": "BR.CONTUMIL",
    "zone_id": "PRT3"
  },
  "BCP1": {
    "stop_code": "BCP1",
    "stop_lat": "41.1573065845836",
    "stop_lon": "-8.57049139418464",
    "stop_name": "BR.CERCO PORTO",
    "zone_id": "PRT3"
  },
  "BCP2": {
    "stop_code": "BCP2",
    "stop_lat": "41.1575155815653",
    "stop_lon": "-8.5699924041566",
    "stop_name": "BR.CERCO PORTO",
    "zone_id": "PRT3"
  },
  "BEL1": {
    "stop_code": "BEL1",
    "stop_lat": "41.2262618071366",
    "stop_lon": "-8.54868448318886",
    "stop_name": "BELA",
    "zone_id": "MAI4"
  },
  "BEL2": {
    "stop_code": "BEL2",
    "stop_lat": "41.2268072878457",
    "stop_lon": "-8.5487070291713",
    "stop_name": "BELA",
    "zone_id": "MAI4"
  },
  "BELA2": {
    "stop_code": "BELA2",
    "stop_lat": "41.09354378444",
    "stop_lon": "-8.64799541045537",
    "stop_name": "BELA",
    "zone_id": "VNG4"
  },
  "BFAL1": {
    "stop_code": "BFAL1",
    "stop_lat": "41.1586217774712",
    "stop_lon": "-8.57535205251054",
    "stop_name": "BR. FALCÃO",
    "zone_id": "PRT3"
  },
  "BFAL2": {
    "stop_code": "BFAL2",
    "stop_lat": "41.1589316063826",
    "stop_lon": "-8.57530731814519",
    "stop_name": "BR. FALCÃO",
    "zone_id": "PRT3"
  },
  "BFM2": {
    "stop_code": "BFM2",
    "stop_lat": "41.1504444174737",
    "stop_lon": "-8.59474998856181",
    "stop_name": "BONFIM",
    "zone_id": "PRT1"
  },
  "BFM4": {
    "stop_code": "BFM4",
    "stop_lat": "41.1505833533499",
    "stop_lon": "-8.59475001263672",
    "stop_name": "BONFIM",
    "zone_id": "PRT1"
  },
  "BFM8": {
    "stop_code": "BFM8",
    "stop_lat": "41.1514778185856",
    "stop_lon": "-8.59426156525101",
    "stop_name": "BONFIM",
    "zone_id": "PRT1"
  },
  "BFTM1": {
    "stop_code": "BFTM1",
    "stop_lat": "41.1710217072126",
    "stop_lon": "-8.65798214411239",
    "stop_name": "BR. FONTE DA MOURA",
    "zone_id": "PRT2"
  },
  "BFTM2": {
    "stop_code": "BFTM2",
    "stop_lat": "41.1710853761469",
    "stop_lon": "-8.65845310977672",
    "stop_name": "BR. FONTE DA MOURA",
    "zone_id": "PRT2"
  },
  "BFTM3": {
    "stop_code": "BFTM3",
    "stop_lat": "41.1706719933102",
    "stop_lon": "-8.66098760297955",
    "stop_name": "BR. FONTE DA MOURA",
    "zone_id": "PRT2"
  },
  "BFTM4": {
    "stop_code": "BFTM4",
    "stop_lat": "41.1703108633531",
    "stop_lon": "-8.66076544005647",
    "stop_name": "BR.FONTE DA MOURA",
    "zone_id": "PRT2"
  },
  "BGJ1": {
    "stop_code": "BGJ1",
    "stop_lat": "41.1307577444497",
    "stop_lon": "-8.64960488956365",
    "stop_name": "BRAGA JÚNIOR",
    "zone_id": "VNG5"
  },
  "BGJ2": {
    "stop_code": "BGJ2",
    "stop_lat": "41.1306881729571",
    "stop_lon": "-8.64905652819325",
    "stop_name": "BRAGA JÚNIOR",
    "zone_id": "VNG5"
  },
  "BH1": {
    "stop_code": "BH1",
    "stop_lat": "41.1537451792207",
    "stop_lon": "-8.51387086929952",
    "stop_name": "BELO HORIZONTE",
    "zone_id": "GDM2"
  },
  "BH2": {
    "stop_code": "BH2",
    "stop_lat": "41.1538014734654",
    "stop_lon": "-8.51367546179739",
    "stop_name": "BELO HORIZONTE",
    "zone_id": "GDM2"
  },
  "BIC1": {
    "stop_code": "BIC1",
    "stop_lat": "41.1485162742235",
    "stop_lon": "-8.63694472753747",
    "stop_name": "BICALHO",
    "zone_id": "PRT1"
  },
  "BIC2": {
    "stop_code": "BIC2",
    "stop_lat": "41.1482913506215",
    "stop_lon": "-8.63657419998632",
    "stop_name": "BICALHO",
    "zone_id": "PRT1"
  },
  "BIC3": {
    "stop_code": "BIC3",
    "stop_lat": "41.1483888916822",
    "stop_lon": "-8.63699997576471",
    "stop_name": "BICALHO",
    "zone_id": "PRT1"
  },
  "BIC4": {
    "stop_code": "BIC4",
    "stop_lat": "41.1483889128827",
    "stop_lon": "-8.63713887236816",
    "stop_name": "BICALHO",
    "zone_id": "PRT1"
  },
  "BJ3": {
    "stop_code": "BJ3",
    "stop_lat": "41.1655000074486",
    "stop_lon": "-8.60441664535687",
    "stop_name": "BENTO JÚNIOR",
    "zone_id": "PRT1"
  },
  "BL1": {
    "stop_code": "BL1",
    "stop_lat": "41.1544221918691",
    "stop_lon": "-8.59532061714942",
    "stop_name": "BARROS LIMA",
    "zone_id": "PRT1"
  },
  "BL2": {
    "stop_code": "BL2",
    "stop_lat": "41.1551019069059",
    "stop_lon": "-8.59543679464357",
    "stop_name": "BARROS LIMA",
    "zone_id": "PRT1"
  },
  "BL4": {
    "stop_code": "BL4",
    "stop_lat": "41.1548388692994",
    "stop_lon": "-8.5954872415644",
    "stop_name": "BARROS LIMA",
    "zone_id": "PRT1"
  },
  "BLD1": {
    "stop_code": "BLD1",
    "stop_lat": "41.2174776293821",
    "stop_lon": "-8.6797381044511",
    "stop_name": "BALDÕES",
    "zone_id": "MTS2"
  },
  "BLFZ1": {
    "stop_code": "BLFZ1",
    "stop_lat": "41.1514366274902",
    "stop_lon": "-8.60634059317883",
    "stop_name": "BOLHÃO (FIRMEZA)",
    "zone_id": "PRT1"
  },
  "BLG1": {
    "stop_code": "BLG1",
    "stop_lat": "41.1802207315372",
    "stop_lon": "-8.61372776381215",
    "stop_name": "BERLENGAS",
    "zone_id": "PRT3"
  },
  "BLG2": {
    "stop_code": "BLG2",
    "stop_lat": "41.1795225498707",
    "stop_lon": "-8.6139630304142",
    "stop_name": "BERLENGAS",
    "zone_id": "PRT3"
  },
  "BLGT1": {
    "stop_code": "BLGT1",
    "stop_lat": "41.1533877205535",
    "stop_lon": "-8.56734117410638",
    "stop_name": "BR. LAGARTEIRO",
    "zone_id": "PRT3"
  },
  "BLGT2": {
    "stop_code": "BLGT2",
    "stop_lat": "41.1532757966204",
    "stop_lon": "-8.56731756034338",
    "stop_name": "BR.LAGARTEIRO",
    "zone_id": "PRT3"
  },
  "BLM": {
    "stop_code": "BLM",
    "stop_lat": "41.1496365188789",
    "stop_lon": "-8.60493302634795",
    "stop_name": "BOLHÃO (METRO)",
    "zone_id": "PRT1"
  },
  "BLRB1": {
    "stop_code": "BLRB1",
    "stop_lat": "41.1518678017635",
    "stop_lon": "-8.60711493965863",
    "stop_name": "BOLHÃO",
    "zone_id": "PRT1"
  },
  "BLRB2": {
    "stop_code": "BLRB2",
    "stop_lat": "41.1516718213899",
    "stop_lon": "-8.60719191085997",
    "stop_name": "BOLHÃO",
    "zone_id": "PRT1"
  },
  "BLRB3": {
    "stop_code": "BLRB3",
    "stop_lat": "41.1514157917848",
    "stop_lon": "-8.60731026169494",
    "stop_name": "BOLHÃO",
    "zone_id": "PRT1"
  },
  "BLRB4": {
    "stop_code": "BLRB4",
    "stop_lat": "41.1509758733737",
    "stop_lon": "-8.60699735390389",
    "stop_name": "BOLHÃO",
    "zone_id": "PRT1"
  },
  "BMAF1": {
    "stop_code": "BMAF1",
    "stop_lat": "41.1651948100682",
    "stop_lon": "-8.57544247292475",
    "stop_name": "BEATA MAFALDA",
    "zone_id": "PRT3"
  },
  "BNJ1": {
    "stop_code": "BNJ1",
    "stop_lat": "41.1519958914076",
    "stop_lon": "-8.57472081242893",
    "stop_name": "BONJÓIA",
    "zone_id": "PRT3"
  },
  "BNJ2": {
    "stop_code": "BNJ2",
    "stop_lat": "41.1517706987207",
    "stop_lon": "-8.57474312288446",
    "stop_name": "BONJÓIA",
    "zone_id": "PRT3"
  },
  "BNV2": {
    "stop_code": "BNV2",
    "stop_lat": "41.0974103383231",
    "stop_lon": "-8.61965689129445",
    "stop_name": "BOA NOVA",
    "zone_id": "VNG4"
  },
  "BOIM1": {
    "stop_code": "BOIM1",
    "stop_lat": "41.1949421880588",
    "stop_lon": "-8.59405931786636",
    "stop_name": "BOI MORTO",
    "zone_id": "MAI4"
  },
  "BOIM2": {
    "stop_code": "BOIM2",
    "stop_lat": "41.1950316534918",
    "stop_lon": "-8.59420299523473",
    "stop_name": "BOI MORTO",
    "zone_id": "MAI4"
  },
  "BOVT1": {
    "stop_code": "BOVT1",
    "stop_lat": "41.229773348679",
    "stop_lon": "-8.54843329613656",
    "stop_name": "BOAVISTA",
    "zone_id": "MAI4"
  },
  "BOVT2": {
    "stop_code": "BOVT2",
    "stop_lat": "41.2298630861881",
    "stop_lon": "-8.54851735475619",
    "stop_name": "BOAVISTA",
    "zone_id": "MAI4"
  },
  "BRA1": {
    "stop_code": "BRA1",
    "stop_lat": "41.1764494061298",
    "stop_lon": "-8.62007743425771",
    "stop_name": "BR.DO AMIAL",
    "zone_id": "PRT2"
  },
  "BRA4": {
    "stop_code": "BRA4",
    "stop_lat": "41.1766974211769",
    "stop_lon": "-8.62076893251198",
    "stop_name": "BR. DO AMIAL",
    "zone_id": "PRT2"
  },
  "BRA5": {
    "stop_code": "BRA5",
    "stop_lat": "41.1768333146696",
    "stop_lon": "-8.61999996143924",
    "stop_name": "BR. DO AMIAL",
    "zone_id": "PRT2"
  },
  "BRB3": {
    "stop_code": "BRB3",
    "stop_lat": "41.1649086472962",
    "stop_lon": "-8.56603776443858",
    "stop_name": "BERNARDIM RIBEIRO",
    "zone_id": "PRT3"
  },
  "BRB4": {
    "stop_code": "BRB4",
    "stop_lat": "41.1646991635625",
    "stop_lon": "-8.56571502935069",
    "stop_name": "BERNARDIM RIBEIRO",
    "zone_id": "PRT3"
  },
  "BRBQ1": {
    "stop_code": "BRBQ1",
    "stop_lat": "41.1741373538574",
    "stop_lon": "-8.67526305714138",
    "stop_name": "BAIRRO DA BIQUINHA",
    "zone_id": "MTS1"
  },
  "BRBQ4": {
    "stop_code": "BRBQ4",
    "stop_lat": "41.1752777255154",
    "stop_lon": "-8.67444448174768",
    "stop_name": "BAIRRO DA BIQUINHA",
    "zone_id": "MTS1"
  },
  "BRC1": {
    "stop_code": "BRC1",
    "stop_lat": "41.1117777385372",
    "stop_lon": "-8.60927770703781",
    "stop_name": "BR. CEDRO",
    "zone_id": "VNG1"
  },
  "BRC2": {
    "stop_code": "BRC2",
    "stop_lat": "41.1118888664804",
    "stop_lon": "-8.60936113701106",
    "stop_name": "BR. CEDRO",
    "zone_id": "VNG1"
  },
  "BRCC1": {
    "stop_code": "BRCC1",
    "stop_lat": "41.1719558095221",
    "stop_lon": "-8.58564306925057",
    "stop_name": "BR. COSTA CABRAL",
    "zone_id": "PRT3"
  },
  "BRCP2": {
    "stop_code": "BRCP2",
    "stop_lat": "41.1689729880267",
    "stop_lon": "-8.6510529628459",
    "stop_name": "BR. CAMPINAS",
    "zone_id": "PRT2"
  },
  "BRG1": {
    "stop_code": "BRG1",
    "stop_lat": "41.220457906378",
    "stop_lon": "-8.66859173334137",
    "stop_name": "BR.GUARDAS",
    "zone_id": "MTS2"
  },
  "BRG2": {
    "stop_code": "BRG2",
    "stop_lat": "41.2203333169533",
    "stop_lon": "-8.66852774950617",
    "stop_name": "BR.GUARDAS",
    "zone_id": "MTS2"
  },
  "BRIB1": {
    "stop_code": "BRIB1",
    "stop_lat": "41.1122222488629",
    "stop_lon": "-8.61119440818223",
    "stop_name": "BERNARDIM RIBEIRO",
    "zone_id": "VNG1"
  },
  "BRIB2": {
    "stop_code": "BRIB2",
    "stop_lat": "41.1123610714752",
    "stop_lon": "-8.61141662583928",
    "stop_name": "BERNARDIM RIBEIRO",
    "zone_id": "VNG1"
  },
  "BRNS": {
    "stop_code": "BRNS",
    "stop_lat": "41.1766943864092",
    "stop_lon": "-8.67263889656068",
    "stop_name": "BERNARDO SANTARENO",
    "zone_id": "MTS1"
  },
  "BRO1": {
    "stop_code": "BRO1",
    "stop_lat": "41.1971404294461",
    "stop_lon": "-8.57601401104676",
    "stop_name": "BRÁS OLEIRO",
    "zone_id": "MAI4"
  },
  "BRO2": {
    "stop_code": "BRO2",
    "stop_lat": "41.1978232344363",
    "stop_lon": "-8.57605653562599",
    "stop_name": "BRÁS OLEIRO",
    "zone_id": "MAI4"
  },
  "BRP1": {
    "stop_code": "BRP1",
    "stop_lat": "41.1657830989615",
    "stop_lon": "-8.65765427610293",
    "stop_name": "BAIRRO DA PREVIDÊNCIA",
    "zone_id": "PRT2"
  },
  "BRP2": {
    "stop_code": "BRP2",
    "stop_lat": "41.1656666212414",
    "stop_lon": "-8.65752775744611",
    "stop_name": "BAIRRO DA PREVIDÊNCIA",
    "zone_id": "PRT2"
  },
  "BRR1": {
    "stop_code": "BRR1",
    "stop_lat": "41.1590845132045",
    "stop_lon": "-8.52220497508234",
    "stop_name": "BARREIROS",
    "zone_id": "GDM1"
  },
  "BRR2": {
    "stop_code": "BRR2",
    "stop_lat": "41.159185434985",
    "stop_lon": "-8.52231601836144",
    "stop_name": "BARREIROS",
    "zone_id": "GDM1"
  },
  "BRRG2": {
    "stop_code": "BRRG2",
    "stop_lat": "41.1753007138921",
    "stop_lon": "-8.61669303161916",
    "stop_name": "BR.REGADO",
    "zone_id": "PRT2"
  },
  "BRRM1": {
    "stop_code": "BRRM1",
    "stop_lat": "41.1704150245123",
    "stop_lon": "-8.64850772458142",
    "stop_name": "BR. RAMALDE",
    "zone_id": "PRT2"
  },
  "BRRM2": {
    "stop_code": "BRRM2",
    "stop_lat": "41.1702574011976",
    "stop_lon": "-8.64845846427482",
    "stop_name": "BR. RAMALDE",
    "zone_id": "PRT2"
  },
  "BRRO1": {
    "stop_code": "BRRO1",
    "stop_lat": "41.2339221784187",
    "stop_lon": "-8.6702660407053",
    "stop_name": "BARREIRO",
    "zone_id": "VCD8"
  },
  "BRRO2": {
    "stop_code": "BRRO2",
    "stop_lat": "41.2338943677078",
    "stop_lon": "-8.67057151993905",
    "stop_name": "BARREIRO",
    "zone_id": "VCD8"
  },
  "BRRO3": {
    "stop_code": "BRRO3",
    "stop_lat": "41.2337129410962",
    "stop_lon": "-8.66904734240689",
    "stop_name": "BARREIRO",
    "zone_id": "VCD8"
  },
  "BRRO4": {
    "stop_code": "BRRO4",
    "stop_lat": "41.2335686022845",
    "stop_lon": "-8.66910579920225",
    "stop_name": "BARREIRO",
    "zone_id": "VCD8"
  },
  "BRRS": {
    "stop_code": "BRRS",
    "stop_lat": "41.1250555463489",
    "stop_lon": "-8.61238890341704",
    "stop_name": "BARROSA",
    "zone_id": "VNG1"
  },
  "BRRS1": {
    "stop_code": "BRRS1",
    "stop_lat": "41.1724397906059",
    "stop_lon": "-8.58749002319739",
    "stop_name": "BARROCAS",
    "zone_id": "PRT3"
  },
  "BRRS2": {
    "stop_code": "BRRS2",
    "stop_lat": "41.171855547345",
    "stop_lon": "-8.5880254347578",
    "stop_name": "BARROCAS",
    "zone_id": "PRT3"
  },
  "BRSE1": {
    "stop_code": "BRSE1",
    "stop_lat": "41.1812393810965",
    "stop_lon": "-8.63658236101286",
    "stop_name": "BR. STO. EUGÉNIO",
    "zone_id": "PRT2"
  },
  "BRTC1": {
    "stop_code": "BRTC1",
    "stop_lat": "41.182305528179",
    "stop_lon": "-8.69041669038254",
    "stop_name": "BRITO CAPELO",
    "zone_id": "MTS1"
  },
  "BRTC2": {
    "stop_code": "BRTC2",
    "stop_lat": "41.1816809902915",
    "stop_lon": "-8.69030650403828",
    "stop_name": "BRITO CAPELO",
    "zone_id": "MTS1"
  },
  "BRTC5": {
    "stop_code": "BRTC5",
    "stop_lat": "41.1785555581442",
    "stop_lon": "-8.68883327321008",
    "stop_name": "BRITO CAPELO",
    "zone_id": "MTS1"
  },
  "BRV1": {
    "stop_code": "BRV1",
    "stop_lat": "41.1670648844665",
    "stop_lon": "-8.65998961103754",
    "stop_name": "BAIRRO VILARINHA",
    "zone_id": "PRT2"
  },
  "BRV2": {
    "stop_code": "BRV2",
    "stop_lat": "41.1672045428389",
    "stop_lon": "-8.66006758804244",
    "stop_name": "BAIRRO VILARINHA",
    "zone_id": "PRT2"
  },
  "BRV3": {
    "stop_code": "BRV3",
    "stop_lat": "41.1662221646187",
    "stop_lon": "-8.6596388465394",
    "stop_name": "BAIRRO DA VILARINHA",
    "zone_id": "PRT2"
  },
  "BRV4": {
    "stop_code": "BRV4",
    "stop_lat": "41.1661389066001",
    "stop_lon": "-8.65974994523804",
    "stop_name": "BAIRRO DA VILARINHA",
    "zone_id": "PRT2"
  },
  "BRVS": {
    "stop_code": "BRVS",
    "stop_lat": "41.1812227739206",
    "stop_lon": "-8.64845272347513",
    "stop_name": "BAIRRO DO VISO",
    "zone_id": "PRT2"
  },
  "BS1": {
    "stop_code": "BS1",
    "stop_lat": "41.156403474422",
    "stop_lon": "-8.62792954663119",
    "stop_name": "BOAVISTA - B.SUCESSO",
    "zone_id": "PRT1"
  },
  "BS2": {
    "stop_code": "BS2",
    "stop_lat": "41.1553009155342",
    "stop_lon": "-8.62826100753222",
    "stop_name": "BOAVISTA - B.SUCESSO",
    "zone_id": "PRT1"
  },
  "BS4": {
    "stop_code": "BS4",
    "stop_lat": "41.1559942707683",
    "stop_lon": "-8.62846364594593",
    "stop_name": "BOAVISTA - B.SUCESSO",
    "zone_id": "PRT1"
  },
  "BS5": {
    "stop_code": "BS5",
    "stop_lat": "41.156156866278",
    "stop_lon": "-8.62857304866752",
    "stop_name": "BOAVISTA-B.SUCESSO",
    "zone_id": "PRT1"
  },
  "BS6": {
    "stop_code": "BS6",
    "stop_lat": "41.1558221345343",
    "stop_lon": "-8.62835333783781",
    "stop_name": "BOAVISTA - B. SUCESSO",
    "zone_id": "PRT1"
  },
  "BS7": {
    "stop_code": "BS7",
    "stop_lat": "41.1558943109686",
    "stop_lon": "-8.62848743358305",
    "stop_name": "BOAVISTA - B.SUCESSO",
    "zone_id": "PRT1"
  },
  "BS8": {
    "stop_code": "BS8",
    "stop_lat": "41.1551497874929",
    "stop_lon": "-8.62852017627506",
    "stop_name": "BOM SUCESSO",
    "zone_id": "PRT1"
  },
  "BS9": {
    "stop_code": "BS9",
    "stop_lat": "41.1556998479921",
    "stop_lon": "-8.6283762423157",
    "stop_name": "BOAVISTA (BOM SUCESSO)",
    "zone_id": "PRT1"
  },
  "BSB": {
    "stop_code": "BSB",
    "stop_lat": "41.163368071324",
    "stop_lon": "-8.61567464751422",
    "stop_name": "SAPADOR. BOMBEIROS",
    "zone_id": "PRT1"
  },
  "BSEE1": {
    "stop_code": "BSEE1",
    "stop_lat": "41.1791162981376",
    "stop_lon": "-8.63750113300492",
    "stop_name": "BR. STO.EUGÉNIO (ESCOLA)",
    "zone_id": "PRT2"
  },
  "BSEE2": {
    "stop_code": "BSEE2",
    "stop_lat": "41.1790876474598",
    "stop_lon": "-8.6373819732689",
    "stop_name": "BR.STO.EUGÉNIO (ESCOLA)",
    "zone_id": "PRT2"
  },
  "BSS1": {
    "stop_code": "BSS1",
    "stop_lat": "41.160616404159",
    "stop_lon": "-8.64498750586346",
    "stop_name": "BESSA",
    "zone_id": "PRT1"
  },
  "BSS2": {
    "stop_code": "BSS2",
    "stop_lat": "41.1605330922443",
    "stop_lon": "-8.64493193069031",
    "stop_name": "BESSA",
    "zone_id": "PRT1"
  },
  "BSS6": {
    "stop_code": "BSS6",
    "stop_lat": "41.1600608589672",
    "stop_lon": "-8.64415417444374",
    "stop_name": "BESSA",
    "zone_id": "PRT1"
  },
  "BTLH1": {
    "stop_code": "BTLH1",
    "stop_lat": "41.145083316354",
    "stop_lon": "-8.60716661149907",
    "stop_name": "BATALHA",
    "zone_id": "PRT1"
  },
  "BTLH5": {
    "stop_code": "BTLH5",
    "stop_lat": "41.1437222121175",
    "stop_lon": "-8.60408329160133",
    "stop_name": "BATALHA",
    "zone_id": "PRT1"
  },
  "BTLH6": {
    "stop_code": "BTLH6",
    "stop_lat": "41.1449115961475",
    "stop_lon": "-8.60441069637148",
    "stop_name": "BATALHA",
    "zone_id": "PRT1"
  },
  "BV1": {
    "stop_code": "BV1",
    "stop_lat": "41.1570651885462",
    "stop_lon": "-8.51626778116179",
    "stop_name": "BELA VISTA",
    "zone_id": "GDM2"
  },
  "BV2": {
    "stop_code": "BV2",
    "stop_lat": "41.1570708790605",
    "stop_lon": "-8.51599248615023",
    "stop_name": "BELA VISTA",
    "zone_id": "GDM2"
  },
  "BVBR1": {
    "stop_code": "BVBR1",
    "stop_lat": "41.1575604721884",
    "stop_lon": "-8.62737617194423",
    "stop_name": "BOAVISTA BRASÍLIA",
    "zone_id": "PRT1"
  },
  "BVBR2": {
    "stop_code": "BVBR2",
    "stop_lat": "41.1575866387239",
    "stop_lon": "-8.62667225845162",
    "stop_name": "BOAVISTA BRASÍLIA",
    "zone_id": "PRT1"
  },
  "BVC2": {
    "stop_code": "BVC2",
    "stop_lat": "41.1272221931979",
    "stop_lon": "-8.62924996081456",
    "stop_name": "B.V. COIMBRÕES",
    "zone_id": "VNG1"
  },
  "BVCM3": {
    "stop_code": "BVCM3",
    "stop_lat": "41.1571636941751",
    "stop_lon": "-8.62999767663858",
    "stop_name": "BOAVISTA CEMITÉRIO",
    "zone_id": "PRT1"
  },
  "BVCT1": {
    "stop_code": "BVCT1",
    "stop_lat": "41.1581179209701",
    "stop_lon": "-8.62783762828396",
    "stop_name": "BOAVISTA CORREIOS",
    "zone_id": "PRT1"
  },
  "BVE1": {
    "stop_code": "BVE1",
    "stop_lat": "41.2169675948521",
    "stop_lon": "-8.55141668967557",
    "stop_name": "ERMESINDE - B. V.",
    "zone_id": "MAI4"
  },
  "BVE2": {
    "stop_code": "BVE2",
    "stop_lat": "41.2172847740388",
    "stop_lon": "-8.55085825402311",
    "stop_name": "ERMESINDE - B. V.",
    "zone_id": "MAI4"
  },
  "BVG1": {
    "stop_code": "BVG1",
    "stop_lat": "41.1417627724744",
    "stop_lon": "-8.53313832200224",
    "stop_name": "B. V. GONDOMAR",
    "zone_id": "GDM1"
  },
  "BVG2": {
    "stop_code": "BVG2",
    "stop_lat": "41.1419721695872",
    "stop_lon": "-8.53255559802028",
    "stop_name": "B. V. GONDOMAR",
    "zone_id": "GDM1"
  },
  "BVLB1": {
    "stop_code": "BVLB1",
    "stop_lat": "41.2111880673324",
    "stop_lon": "-8.63317896030662",
    "stop_name": "B. V. LEÇA BALIO",
    "zone_id": "MAI1"
  },
  "BVLB2": {
    "stop_code": "BVLB2",
    "stop_lat": "41.2109721675764",
    "stop_lon": "-8.63327770876934",
    "stop_name": "B. V. LEÇA BALIO",
    "zone_id": "MAI1"
  },
  "BZ1": {
    "stop_code": "BZ1",
    "stop_lat": "41.1824966794531",
    "stop_lon": "-8.55984297346397",
    "stop_name": "BAZAR",
    "zone_id": "MAI4"
  },
  "BZ2": {
    "stop_code": "BZ2",
    "stop_lat": "41.1822414230667",
    "stop_lon": "-8.56037215589917",
    "stop_name": "BAZAR",
    "zone_id": "MAI4"
  },
  "C24A1": {
    "stop_code": "C24A1",
    "stop_lat": "41.1487547459371",
    "stop_lon": "-8.59839327398482",
    "stop_name": "CAMPO 24 DE AGOSTO",
    "zone_id": "PRT1"
  },
  "C24A2": {
    "stop_code": "C24A2",
    "stop_lat": "41.1486208369036",
    "stop_lon": "-8.5977740782175",
    "stop_name": "CAMPO 24 DE AGOSTO",
    "zone_id": "PRT1"
  },
  "C24A3": {
    "stop_code": "C24A3",
    "stop_lat": "41.1486110729034",
    "stop_lon": "-8.59878464572987",
    "stop_name": "CAMPO 24 DE AGOSTO",
    "zone_id": "PRT1"
  },
  "C24A4": {
    "stop_code": "C24A4",
    "stop_lat": "41.1489255347099",
    "stop_lon": "-8.59853219091193",
    "stop_name": "CAMPO 24 AGOSTO",
    "zone_id": "PRT1"
  },
  "C24A5": {
    "stop_code": "C24A5",
    "stop_lat": "41.1489196131184",
    "stop_lon": "-8.59763693796131",
    "stop_name": "CAMPO 24 DE AGOSTO",
    "zone_id": "PRT1"
  },
  "C301": {
    "stop_code": "C301",
    "stop_lat": "41.1555213483993",
    "stop_lon": "-8.51479768743877",
    "stop_name": "CURVA DO 30",
    "zone_id": "GDM2"
  },
  "C302": {
    "stop_code": "C302",
    "stop_lat": "41.1554056825998",
    "stop_lon": "-8.5145691088977",
    "stop_name": "CURVA DO 30",
    "zone_id": "GDM2"
  },
  "C61": {
    "stop_code": "C61",
    "stop_lat": "41.1937829911437",
    "stop_lon": "-8.68915458537796",
    "stop_name": "CAIS 6",
    "zone_id": "MTS2"
  },
  "C62": {
    "stop_code": "C62",
    "stop_lat": "41.1935608062637",
    "stop_lon": "-8.68890463796767",
    "stop_name": "CAIS 6",
    "zone_id": "MTS2"
  },
  "CAB1": {
    "stop_code": "CAB1",
    "stop_lat": "41.1059359946653",
    "stop_lon": "-8.64091541301313",
    "stop_name": "CABINE",
    "zone_id": "VNG4"
  },
  "CAB2": {
    "stop_code": "CAB2",
    "stop_lat": "41.1059411798564",
    "stop_lon": "-8.64078116983553",
    "stop_name": "CABINE",
    "zone_id": "VNG4"
  },
  "CAB3": {
    "stop_code": "CAB3",
    "stop_lat": "41.1061762564929",
    "stop_lon": "-8.64145952206307",
    "stop_name": "CABINE",
    "zone_id": "VNG4"
  },
  "CAB4": {
    "stop_code": "CAB4",
    "stop_lat": "41.1061056978769",
    "stop_lon": "-8.64112564866366",
    "stop_name": "CABINE",
    "zone_id": "VNG4"
  },
  "CABN1": {
    "stop_code": "CABN1",
    "stop_lat": "41.1677499333649",
    "stop_lon": "-8.54117418578474",
    "stop_name": "CABANAS",
    "zone_id": "GDM1"
  },
  "CABN2": {
    "stop_code": "CABN2",
    "stop_lat": "41.1678332840493",
    "stop_lon": "-8.54105554683272",
    "stop_name": "CABANAS",
    "zone_id": "GDM1"
  },
  "CAIS1": {
    "stop_code": "CAIS1",
    "stop_lat": "41.1460814984025",
    "stop_lon": "-8.63108247467304",
    "stop_name": "CAIS DAS PEDRAS",
    "zone_id": "PRT1"
  },
  "CAIS2": {
    "stop_code": "CAIS2",
    "stop_lat": "41.1460030409277",
    "stop_lon": "-8.63111022974134",
    "stop_name": "CAIS DAS PEDRAS",
    "zone_id": "PRT1"
  },
  "CAL1": {
    "stop_code": "CAL1",
    "stop_lat": "41.2051944608141",
    "stop_lon": "-8.64324994722416",
    "stop_name": "CAL",
    "zone_id": "MAI1"
  },
  "CAL2": {
    "stop_code": "CAL2",
    "stop_lat": "41.2051110817987",
    "stop_lon": "-8.64325001350175",
    "stop_name": "CAL",
    "zone_id": "MAI1"
  },
  "CALE": {
    "stop_code": "CALE",
    "stop_lat": "41.1531388331841",
    "stop_lon": "-8.62861114589576",
    "stop_name": "R.CAMPO ALEGRE",
    "zone_id": "PRT1"
  },
  "CAM1": {
    "stop_code": "CAM1",
    "stop_lat": "41.1754480932435",
    "stop_lon": "-8.61365036592353",
    "stop_name": "CARLOS AMARANTE",
    "zone_id": "PRT3"
  },
  "CAM3": {
    "stop_code": "CAM3",
    "stop_lat": "41.1754547397726",
    "stop_lon": "-8.61386957052867",
    "stop_name": "CARLOS AMARANTE",
    "zone_id": "PRT3"
  },
  "CARR1": {
    "stop_code": "CARR1",
    "stop_lat": "41.1861498687522",
    "stop_lon": "-8.65873264937007",
    "stop_name": "CARRIÇAL",
    "zone_id": "MTS1"
  },
  "CARR2": {
    "stop_code": "CARR2",
    "stop_lat": "41.1863572999356",
    "stop_lon": "-8.65798972640107",
    "stop_name": "CARRIÇAL",
    "zone_id": "MTS1"
  },
  "CART": {
    "stop_code": "CART",
    "stop_lat": "41.1560277298157",
    "stop_lon": "-8.64188885720336",
    "stop_name": "CASA  DAS ARTES",
    "zone_id": "PRT1"
  },
  "CAVE4": {
    "stop_code": "CAVE4",
    "stop_lat": "41.1371284735137",
    "stop_lon": "-8.61964132407675",
    "stop_name": "LGO. DA CRUZ",
    "zone_id": "VNG1"
  },
  "CAZ": {
    "stop_code": "CAZ",
    "stop_lat": "41.1593320467856",
    "stop_lon": "-8.59699399714811",
    "stop_name": "COUTINHO AZEVEDO",
    "zone_id": "PRT1"
  },
  "CB1": {
    "stop_code": "CB1",
    "stop_lat": "41.1637458184225",
    "stop_lon": "-8.53937381645082",
    "stop_name": "CARVALHA DE BAIXO",
    "zone_id": "GDM1"
  },
  "CB2": {
    "stop_code": "CB2",
    "stop_lat": "41.1639999545506",
    "stop_lon": "-8.53969447603586",
    "stop_name": "CARVALHA DE BAIXO",
    "zone_id": "GDM1"
  },
  "CB3": {
    "stop_code": "CB3",
    "stop_lat": "41.1646399424532",
    "stop_lon": "-8.54016194391965",
    "stop_name": "CARVALHA DE BAIXO",
    "zone_id": "GDM1"
  },
  "CB4": {
    "stop_code": "CB4",
    "stop_lat": "41.1646110614588",
    "stop_lon": "-8.54033334320155",
    "stop_name": "CARVALHA DE BAIXO",
    "zone_id": "GDM1"
  },
  "CBD1": {
    "stop_code": "CBD1",
    "stop_lat": "41.2233193855186",
    "stop_lon": "-8.53263832663335",
    "stop_name": "CABEDA",
    "zone_id": "VLG2"
  },
  "CBD2": {
    "stop_code": "CBD2",
    "stop_lat": "41.2234227681283",
    "stop_lon": "-8.532737584482",
    "stop_name": "CABEDA",
    "zone_id": "VLG2"
  },
  "CBMN2": {
    "stop_code": "CBMN2",
    "stop_lat": "41.2206666943338",
    "stop_lon": "-8.71327780860174",
    "stop_name": "CABO MUNDO",
    "zone_id": "MTS2"
  },
  "CBN1": {
    "stop_code": "CBN1",
    "stop_lat": "41.2232916176977",
    "stop_lon": "-8.61509048840315",
    "stop_name": "COMBONIANOS",
    "zone_id": "MAI1"
  },
  "CBN2": {
    "stop_code": "CBN2",
    "stop_lat": "41.2227956523601",
    "stop_lon": "-8.61513728361578",
    "stop_name": "COMBONIANOS",
    "zone_id": "MAI1"
  },
  "CCA1": {
    "stop_code": "CCA1",
    "stop_lat": "41.2388825534083",
    "stop_lon": "-8.63281470258775",
    "stop_name": "CONS.COSTA AROSO",
    "zone_id": "MAI1"
  },
  "CCA2": {
    "stop_code": "CCA2",
    "stop_lat": "41.239176551478",
    "stop_lon": "-8.63349425808766",
    "stop_name": "CONS.COSTA AROSO",
    "zone_id": "MAI1"
  },
  "CCB": {
    "stop_code": "CCB",
    "stop_lat": "41.2087247107046",
    "stop_lon": "-8.61346894622951",
    "stop_name": "CAMILO C. BRANCO",
    "zone_id": "MAI1"
  },
  "CCB1": {
    "stop_code": "CCB1",
    "stop_lat": "41.1390000083801",
    "stop_lon": "-8.63399997962349",
    "stop_name": "CAMILO C. BRANCO",
    "zone_id": "VNG1"
  },
  "CCB2": {
    "stop_code": "CCB2",
    "stop_lat": "41.1384895732242",
    "stop_lon": "-8.63366521550586",
    "stop_name": "CAMILO C. BRANCO",
    "zone_id": "VNG1"
  },
  "CCBR": {
    "stop_code": "CCBR",
    "stop_lat": "41.1683413634114",
    "stop_lon": "-8.59239479154192",
    "stop_name": "COSTA CABRAL",
    "zone_id": "PRT1"
  },
  "CCC1": {
    "stop_code": "CCC1",
    "stop_lat": "41.114722241179",
    "stop_lon": "-8.60499996971906",
    "stop_name": "CLUBE CAÇADORES",
    "zone_id": "VNG1"
  },
  "CCC2": {
    "stop_code": "CCC2",
    "stop_lat": "41.1150208708688",
    "stop_lon": "-8.60459385044103",
    "stop_name": "CLUBE CAÇADORES",
    "zone_id": "VNG1"
  },
  "CCC3": {
    "stop_code": "CCC3",
    "stop_lat": "41.1149721710267",
    "stop_lon": "-8.60472220692285",
    "stop_name": "CLUBE CAÇADORES",
    "zone_id": "VNG1"
  },
  "CCL": {
    "stop_code": "CCL",
    "stop_lat": "41.1313908532118",
    "stop_lon": "-8.65174076826175",
    "stop_name": "CANCELINHAS",
    "zone_id": "VNG5"
  },
  "CCOR": {
    "stop_code": "CCOR",
    "stop_lat": "41.2019148979433",
    "stop_lon": "-8.5732291333684",
    "stop_name": "CASA DO CORIM",
    "zone_id": "MAI4"
  },
  "CCRN1": {
    "stop_code": "CCRN1",
    "stop_lat": "41.207777782847",
    "stop_lon": "-8.62269444848928",
    "stop_name": "CRISTOVÃO CERNACHE",
    "zone_id": "MAI1"
  },
  "CCRN2": {
    "stop_code": "CCRN2",
    "stop_lat": "41.2076342653396",
    "stop_lon": "-8.62269230301413",
    "stop_name": "CRISTOVÃO CERNACHE",
    "zone_id": "MAI1"
  },
  "CDF1": {
    "stop_code": "CDF1",
    "stop_lat": "41.15509289926",
    "stop_lon": "-8.61864303435298",
    "stop_name": "CEDOFEITA",
    "zone_id": "PRT1"
  },
  "CDF2": {
    "stop_code": "CDF2",
    "stop_lat": "41.1545297310713",
    "stop_lon": "-8.61892979230092",
    "stop_name": "CEDOFEITA",
    "zone_id": "PRT1"
  },
  "CDFT1": {
    "stop_code": "CDFT1",
    "stop_lat": "41.0937545787806",
    "stop_lon": "-8.63915397894269",
    "stop_name": "CEDOFEITA",
    "zone_id": "VNG4"
  },
  "CDFT2": {
    "stop_code": "CDFT2",
    "stop_lat": "41.0936802085853",
    "stop_lon": "-8.6389276197478",
    "stop_name": "CEDOFEITA",
    "zone_id": "VNG4"
  },
  "CDL2": {
    "stop_code": "CDL2",
    "stop_lat": "41.1335555155428",
    "stop_lon": "-8.6307777868913",
    "stop_name": "CANDAL",
    "zone_id": "VNG1"
  },
  "CDPD": {
    "stop_code": "CDPD",
    "stop_lat": "41.115140385638",
    "stop_lon": "-8.60880426762385",
    "stop_name": "CONDE D.PEDRO",
    "zone_id": "VNG1"
  },
  "CDR1": {
    "stop_code": "CDR1",
    "stop_lat": "41.2493888832984",
    "stop_lon": "-8.66155555752365",
    "stop_name": "CEDRO",
    "zone_id": "VCD8"
  },
  "CEMT1": {
    "stop_code": "CEMT1",
    "stop_lat": "41.2093931153328",
    "stop_lon": "-8.6258995731349",
    "stop_name": "CEMITÉRIO",
    "zone_id": "MAI1"
  },
  "CEMT2": {
    "stop_code": "CEMT2",
    "stop_lat": "41.2093889080949",
    "stop_lon": "-8.6261666228888",
    "stop_name": "CEMITÉRIO",
    "zone_id": "MAI1"
  },
  "CERR1": {
    "stop_code": "CERR1",
    "stop_lat": "41.1060073905445",
    "stop_lon": "-8.66094596477352",
    "stop_name": "CERRO",
    "zone_id": "VNG4"
  },
  "CERR2": {
    "stop_code": "CERR2",
    "stop_lat": "41.1061689159004",
    "stop_lon": "-8.66106630692149",
    "stop_name": "CERRO",
    "zone_id": "VNG4"
  },
  "CFER1": {
    "stop_code": "CFER1",
    "stop_lat": "41.19013456499",
    "stop_lon": "-8.50581863502975",
    "stop_name": "CONDE FERREIRA",
    "zone_id": "VLG1"
  },
  "CFER2": {
    "stop_code": "CFER2",
    "stop_lat": "41.1906943958019",
    "stop_lon": "-8.50641662360662",
    "stop_name": "CONDE FERREIRA",
    "zone_id": "VLG1"
  },
  "CFM": {
    "stop_code": "CFM",
    "stop_lat": "41.1769444412904",
    "stop_lon": "-8.68297224702521",
    "stop_name": "COMENDADOR FERREIRA  MATOS",
    "zone_id": "MTS1"
  },
  "CGG": {
    "stop_code": "CGG",
    "stop_lat": "41.1434999593704",
    "stop_lon": "-8.53427774892321",
    "stop_name": "COMBATENTES G.GUERRA",
    "zone_id": "GDM1"
  },
  "CGK1": {
    "stop_code": "CGK1",
    "stop_lat": "41.2104167543085",
    "stop_lon": "-8.56247560100407",
    "stop_name": "CALOUSTE GULBENKIAN",
    "zone_id": "MAI4"
  },
  "CGK2": {
    "stop_code": "CGK2",
    "stop_lat": "41.2105246235847",
    "stop_lon": "-8.56252400219438",
    "stop_name": "CALOUSTE GULBENKIAN",
    "zone_id": "MAI4"
  },
  "CHA1": {
    "stop_code": "CHA1",
    "stop_lat": "41.1821666105994",
    "stop_lon": "-8.47805548385341",
    "stop_name": "CHÃ",
    "zone_id": "VLG3"
  },
  "CHA2": {
    "stop_code": "CHA2",
    "stop_lat": "41.1822996498797",
    "stop_lon": "-8.47821970469864",
    "stop_name": "CHÃ",
    "zone_id": "VLG3"
  },
  "CHAO1": {
    "stop_code": "CHAO1",
    "stop_lat": "41.2101666726505",
    "stop_lon": "-8.53824995371821",
    "stop_name": "CHÃOS",
    "zone_id": "MAI4"
  },
  "CHAO2": {
    "stop_code": "CHAO2",
    "stop_lat": "41.2102777684921",
    "stop_lon": "-8.53830548898931",
    "stop_name": "CHÃOS",
    "zone_id": "MAI4"
  },
  "CHAS1": {
    "stop_code": "CHAS1",
    "stop_lat": "41.143851001066",
    "stop_lon": "-8.64192660887834",
    "stop_name": "CHÃS",
    "zone_id": "VNG1"
  },
  "CHAS2": {
    "stop_code": "CHAS2",
    "stop_lat": "41.1414166658308",
    "stop_lon": "-8.64174992951832",
    "stop_name": "CHÃS",
    "zone_id": "VNG1"
  },
  "CHAS3": {
    "stop_code": "CHAS3",
    "stop_lat": "41.1422222104416",
    "stop_lon": "-8.64211111877782",
    "stop_name": "CHÃS",
    "zone_id": "VNG1"
  },
  "CHC1": {
    "stop_code": "CHC1",
    "stop_lat": "41.247850733094",
    "stop_lon": "-8.64225083164889",
    "stop_name": "CHANCIDRO",
    "zone_id": "MAI2"
  },
  "CHC2": {
    "stop_code": "CHC2",
    "stop_lat": "41.2478145885637",
    "stop_lon": "-8.64307135200892",
    "stop_name": "CHÂNCIDRO",
    "zone_id": "MAI2"
  },
  "CHOL2": {
    "stop_code": "CHOL2",
    "stop_lat": "41.1608093339871",
    "stop_lon": "-8.57769250335057",
    "stop_name": "CHAVES OLIVEIRA",
    "zone_id": "PRT3"
  },
  "CHP1": {
    "stop_code": "CHP1",
    "stop_lat": "41.1329999945492",
    "stop_lon": "-8.61224999950092",
    "stop_name": "CHOUPELO",
    "zone_id": "VNG1"
  },
  "CHV1": {
    "stop_code": "CHV1",
    "stop_lat": "41.172932562849",
    "stop_lon": "-8.55626376068252",
    "stop_name": "CHÃO VERDE",
    "zone_id": "GDM1"
  },
  "CHV2": {
    "stop_code": "CHV2",
    "stop_lat": "41.1725833119129",
    "stop_lon": "-8.55691668257602",
    "stop_name": "CHÃO VERDE",
    "zone_id": "GDM1"
  },
  "CHV3": {
    "stop_code": "CHV3",
    "stop_lat": "41.1739072361269",
    "stop_lon": "-8.55571114977721",
    "stop_name": "CHÃO VERDE",
    "zone_id": "GDM1"
  },
  "CHV4": {
    "stop_code": "CHV4",
    "stop_lat": "41.1739287939884",
    "stop_lon": "-8.55552955659132",
    "stop_name": "CHÃO VERDE",
    "zone_id": "GDM1"
  },
  "CI21": {
    "stop_code": "CI21",
    "stop_lat": "41.172774806047",
    "stop_lon": "-8.6263405902266",
    "stop_name": "CINTURA INTERNA",
    "zone_id": "PRT1"
  },
  "CI22": {
    "stop_code": "CI22",
    "stop_lat": "41.1720633536828",
    "stop_lon": "-8.6263260655163",
    "stop_name": "CINTURA INTERNA",
    "zone_id": "PRT1"
  },
  "CI31": {
    "stop_code": "CI31",
    "stop_lat": "41.1739166682503",
    "stop_lon": "-8.61319441005714",
    "stop_name": "CINTURA INTERNA",
    "zone_id": "PRT1"
  },
  "CLRG": {
    "stop_code": "CLRG",
    "stop_lat": "41.145583351365",
    "stop_lon": "-8.61488889380098",
    "stop_name": "CLÉRIGOS",
    "zone_id": "PRT1"
  },
  "CM3": {
    "stop_code": "CM3",
    "stop_lat": "41.134204258747",
    "stop_lon": "-8.6096661706617",
    "stop_name": "CAMÕES",
    "zone_id": "VNG1"
  },
  "CM5": {
    "stop_code": "CM5",
    "stop_lat": "41.1342777780693",
    "stop_lon": "-8.60941660098788",
    "stop_name": "CAMÕES",
    "zone_id": "VNG1"
  },
  "CMEI1": {
    "stop_code": "CMEI1",
    "stop_lat": "41.197713921099",
    "stop_lon": "-8.59444836939957",
    "stop_name": "CASTRO MEIRELES",
    "zone_id": "MAI4"
  },
  "CMEI2": {
    "stop_code": "CMEI2",
    "stop_lat": "41.1977312586079",
    "stop_lon": "-8.59461538780673",
    "stop_name": "CASTRO MEIRELES",
    "zone_id": "MAI4"
  },
  "CMG1": {
    "stop_code": "CMG1",
    "stop_lat": "41.1306109088251",
    "stop_lon": "-8.60633332898121",
    "stop_name": "CÂMARA DE GAIA",
    "zone_id": "VNG1"
  },
  "CMG3": {
    "stop_code": "CMG3",
    "stop_lat": "41.1305277599094",
    "stop_lon": "-8.60658329521126",
    "stop_name": "CÂMARA DE GAIA",
    "zone_id": "VNG1"
  },
  "CMGS1": {
    "stop_code": "CMGS1",
    "stop_lat": "41.2286908914783",
    "stop_lon": "-8.60048688433235",
    "stop_name": "CASAL DOS MOGOS",
    "zone_id": "MAI1"
  },
  "CMGS2": {
    "stop_code": "CMGS2",
    "stop_lat": "41.2282501375272",
    "stop_lon": "-8.60037639723026",
    "stop_name": "CASAL DOS MOGOS",
    "zone_id": "MAI1"
  },
  "CMIC1": {
    "stop_code": "CMIC1",
    "stop_lat": "41.1578819204124",
    "stop_lon": "-8.62209452283992",
    "stop_name": "CAROLINA MICHAELIS",
    "zone_id": "PRT1"
  },
  "CMIC2": {
    "stop_code": "CMIC2",
    "stop_lat": "41.1581072055644",
    "stop_lon": "-8.62277148557972",
    "stop_name": "CAROLINA MICHAELIS",
    "zone_id": "PRT1"
  },
  "CML1": {
    "stop_code": "CML1",
    "stop_lat": "41.2172199903838",
    "stop_lon": "-8.5586923781994",
    "stop_name": "CAMÉLIAS",
    "zone_id": "MAI4"
  },
  "CML2": {
    "stop_code": "CML2",
    "stop_lat": "41.2174040563476",
    "stop_lon": "-8.55888115091449",
    "stop_name": "CAMÉLIAS",
    "zone_id": "MAI4"
  },
  "CMO": {
    "stop_code": "CMO",
    "stop_lat": "41.1472276569054",
    "stop_lon": "-8.61695947381185",
    "stop_name": "CARMO",
    "zone_id": "PRT1"
  },
  "CMP1": {
    "stop_code": "CMP1",
    "stop_lat": "41.1496617166864",
    "stop_lon": "-8.58589257517866",
    "stop_name": "CAMPANHÃ",
    "zone_id": "PRT1"
  },
  "CMP2": {
    "stop_code": "CMP2",
    "stop_lat": "41.1484671741342",
    "stop_lon": "-8.58603848009637",
    "stop_name": "CAMPANHÃ",
    "zone_id": "PRT1"
  },
  "CMP4": {
    "stop_code": "CMP4",
    "stop_lat": "41.1472422970396",
    "stop_lon": "-8.58732200676443",
    "stop_name": "CAMPANHÃ",
    "zone_id": "PRT1"
  },
  "CMP5": {
    "stop_code": "CMP5",
    "stop_lat": "41.1486504778038",
    "stop_lon": "-8.58428232679995",
    "stop_name": "CAMPANHÃ",
    "zone_id": "PRT1"
  },
  "CMPD2": {
    "stop_code": "CMPD2",
    "stop_lat": "41.1890555012872",
    "stop_lon": "-8.5845833237356",
    "stop_name": "COMPLEXO MUNICIPAL PEDROUÇOS",
    "zone_id": "MAI4"
  },
  "CMPO1": {
    "stop_code": "CMPO1",
    "stop_lat": "41.1824166622828",
    "stop_lon": "-8.46411106336004",
    "stop_name": "IGREJA CAMPO",
    "zone_id": "VLG3"
  },
  "CMPO2": {
    "stop_code": "CMPO2",
    "stop_lat": "41.182499999583",
    "stop_lon": "-8.46450002533855",
    "stop_name": "IGREJA CAMPO",
    "zone_id": "VLG3"
  },
  "CMPO3": {
    "stop_code": "CMPO3",
    "stop_lat": "41.1849785390499",
    "stop_lon": "-8.45701475515611",
    "stop_name": "CAMPO",
    "zone_id": "VLG3"
  },
  "CMPO4": {
    "stop_code": "CMPO4",
    "stop_lat": "41.1851452569158",
    "stop_lon": "-8.45734799815977",
    "stop_name": "CAMPO",
    "zone_id": "VLG3"
  },
  "CMPT1": {
    "stop_code": "CMPT1",
    "stop_lat": "41.1525298731974",
    "stop_lon": "-8.66222231218936",
    "stop_name": "CAMPO PASTELEIRA",
    "zone_id": "PRT2"
  },
  "CMPT2": {
    "stop_code": "CMPT2",
    "stop_lat": "41.1528774210184",
    "stop_lon": "-8.66183460404045",
    "stop_name": "CAMPO PASTELEIRA",
    "zone_id": "PRT2"
  },
  "CMR1": {
    "stop_code": "CMR1",
    "stop_lat": "41.1576939330306",
    "stop_lon": "-8.52953868284184",
    "stop_name": "CAPITÃO MOURA",
    "zone_id": "GDM1"
  },
  "CMR2": {
    "stop_code": "CMR2",
    "stop_lat": "41.1574161594464",
    "stop_lon": "-8.52943192381845",
    "stop_name": "CAPITÃO MOURA",
    "zone_id": "GDM1"
  },
  "CMS1": {
    "stop_code": "CMS1",
    "stop_lat": "41.1610423208165",
    "stop_lon": "-8.62980018845283",
    "stop_name": "CASA DA MÚSICA (METRO)",
    "zone_id": "PRT1"
  },
  "CMS2": {
    "stop_code": "CMS2",
    "stop_lat": "41.16121655745",
    "stop_lon": "-8.6299658086002",
    "stop_name": "CASA DA MÚSICA (METRO)",
    "zone_id": "PRT1"
  },
  "CMS4": {
    "stop_code": "CMS4",
    "stop_lat": "41.1611021995597",
    "stop_lon": "-8.62969591298862",
    "stop_name": "CASA DA MÚSICA (METRO)",
    "zone_id": "PRT1"
  },
  "CMS5": {
    "stop_code": "CMS5",
    "stop_lat": "41.1612789821722",
    "stop_lon": "-8.62985583329822",
    "stop_name": "CASA DA MÚSICA (METRO)",
    "zone_id": "PRT1"
  },
  "CMS6": {
    "stop_code": "CMS6",
    "stop_lat": "41.1615399483737",
    "stop_lon": "-8.62982969009506",
    "stop_name": "CASA DA MÚSICA (METRO)",
    "zone_id": "PRT1"
  },
  "CMSM1": {
    "stop_code": "CMSM1",
    "stop_lat": "41.1288888794184",
    "stop_lon": "-8.62672218398002",
    "stop_name": "CEMITÉRIO STA. MARINHA",
    "zone_id": "VNG1"
  },
  "CMV": {
    "stop_code": "CMV",
    "stop_lat": "41.1909999811214",
    "stop_lon": "-8.49838883761755",
    "stop_name": "CÂMARA DE VALONGO",
    "zone_id": "VLG1"
  },
  "CN1": {
    "stop_code": "CN1",
    "stop_lat": "41.1895277200671",
    "stop_lon": "-8.56213882999828",
    "stop_name": "CASAIS NOVOS",
    "zone_id": "MAI4"
  },
  "CN2": {
    "stop_code": "CN2",
    "stop_lat": "41.1894814096154",
    "stop_lon": "-8.56195365262817",
    "stop_name": "CASAIS NOVOS",
    "zone_id": "MAI4"
  },
  "CNG2": {
    "stop_code": "CNG2",
    "stop_lat": "41.1801971730296",
    "stop_lon": "-8.6340000772575",
    "stop_name": "CONGOSTAS",
    "zone_id": "PRT2"
  },
  "CNSL1": {
    "stop_code": "CNSL1",
    "stop_lat": "41.2094755963288",
    "stop_lon": "-8.56488795434337",
    "stop_name": "CONSOLATA",
    "zone_id": "MAI4"
  },
  "CNSL2": {
    "stop_code": "CNSL2",
    "stop_lat": "41.2095067002579",
    "stop_lon": "-8.56504507018382",
    "stop_name": "CONSOLATA",
    "zone_id": "MAI4"
  },
  "CNT1": {
    "stop_code": "CNT1",
    "stop_lat": "41.1480577804287",
    "stop_lon": "-8.66455238837051",
    "stop_name": "CANTAREIRA",
    "zone_id": "PRT2"
  },
  "CNT2": {
    "stop_code": "CNT2",
    "stop_lat": "41.1481360444414",
    "stop_lon": "-8.66530765727305",
    "stop_name": "CANTAREIRA",
    "zone_id": "PRT2"
  },
  "CNT4": {
    "stop_code": "CNT4",
    "stop_lat": "41.148083340705",
    "stop_lon": "-8.66533331777473",
    "stop_name": "CANTAREIRA",
    "zone_id": "PRT2"
  },
  "CNTM": {
    "stop_code": "CNTM",
    "stop_lat": "41.1654384503787",
    "stop_lon": "-8.57958933549932",
    "stop_name": "CONTUMIL (METRO)",
    "zone_id": "PRT3"
  },
  "CNTM2": {
    "stop_code": "CNTM2",
    "stop_lat": "41.1659916734209",
    "stop_lon": "-8.57856837481981",
    "stop_name": "CONTUMIL (METRO)",
    "zone_id": "PRT3"
  },
  "CNTT2": {
    "stop_code": "CNTT2",
    "stop_lat": "41.1639444200162",
    "stop_lon": "-8.61111113681758",
    "stop_name": "CONSTITUIÇÃO",
    "zone_id": "PRT1"
  },
  "CNV1": {
    "stop_code": "CNV1",
    "stop_lat": "41.2042782090721",
    "stop_lon": "-8.60843849738703",
    "stop_name": "CEMITÉRIO NOVO",
    "zone_id": "MAI1"
  },
  "CNV2": {
    "stop_code": "CNV2",
    "stop_lat": "41.2040580624484",
    "stop_lon": "-8.60863290319473",
    "stop_name": "CEMITÉRIO NOVO",
    "zone_id": "MAI1"
  },
  "COB3": {
    "stop_code": "COB3",
    "stop_lat": "41.1242499518121",
    "stop_lon": "-8.63141665959505",
    "stop_name": "COIMBRÕES",
    "zone_id": "VNG1"
  },
  "COB4": {
    "stop_code": "COB4",
    "stop_lat": "41.1242222466399",
    "stop_lon": "-8.63155553315725",
    "stop_name": "COIMBRÕES",
    "zone_id": "VNG1"
  },
  "COB6": {
    "stop_code": "COB6",
    "stop_lat": "41.1239722085091",
    "stop_lon": "-8.63030558003839",
    "stop_name": "COIMBRÕES 1",
    "zone_id": "VNG1"
  },
  "COD": {
    "stop_code": "COD",
    "stop_lat": "41.2446259727168",
    "stop_lon": "-8.51981746031211",
    "stop_name": "LGO DA CODICEIRA",
    "zone_id": "VLG2"
  },
  "COD3": {
    "stop_code": "COD3",
    "stop_lat": "41.244541281964",
    "stop_lon": "-8.51975265846679",
    "stop_name": "LGO DA CODICEIRA",
    "zone_id": "VLG2"
  },
  "COD4": {
    "stop_code": "COD4",
    "stop_lat": "41.2456709594797",
    "stop_lon": "-8.51311438752582",
    "stop_name": "CODICEIRA",
    "zone_id": "VLG2"
  },
  "COEM": {
    "stop_code": "COEM",
    "stop_lat": "41.098663264655",
    "stop_lon": "-8.62870523489299",
    "stop_name": "COELHO MOREIRA",
    "zone_id": "VNG4"
  },
  "COLS": {
    "stop_code": "COLS",
    "stop_lat": "41.1466110703925",
    "stop_lon": "-8.60469448708929",
    "stop_name": "COLISEU DO PORTO",
    "zone_id": "PRT1"
  },
  "COMB1": {
    "stop_code": "COMB1",
    "stop_lat": "41.1646326910072",
    "stop_lon": "-8.60036700377321",
    "stop_name": "COMBATENTES",
    "zone_id": "PRT1"
  },
  "COMB2": {
    "stop_code": "COMB2",
    "stop_lat": "41.1645989919441",
    "stop_lon": "-8.60070467772582",
    "stop_name": "COMBATENTES",
    "zone_id": "PRT1"
  },
  "COMB3": {
    "stop_code": "COMB3",
    "stop_lat": "41.1653389361429",
    "stop_lon": "-8.59807071343336",
    "stop_name": "COMBATENTES",
    "zone_id": "PRT1"
  },
  "COMB4": {
    "stop_code": "COMB4",
    "stop_lat": "41.1655055599403",
    "stop_lon": "-8.59801505816703",
    "stop_name": "COMBATENTES",
    "zone_id": "PRT1"
  },
  "CONS3": {
    "stop_code": "CONS3",
    "stop_lat": "41.1634679592738",
    "stop_lon": "-8.61094895881944",
    "stop_name": "CONSTITUIÇÃO",
    "zone_id": "PRT1"
  },
  "CONT2": {
    "stop_code": "CONT2",
    "stop_lat": "41.18400532162",
    "stop_lon": "-8.66384882975097",
    "stop_name": "CONTINENTE",
    "zone_id": "MTS1"
  },
  "CORD1": {
    "stop_code": "CORD1",
    "stop_lat": "41.1464444733634",
    "stop_lon": "-8.61522219312027",
    "stop_name": "CORDOARIA",
    "zone_id": "PRT1"
  },
  "CORD2": {
    "stop_code": "CORD2",
    "stop_lat": "41.1450298042004",
    "stop_lon": "-8.61642417009534",
    "stop_name": "CORDOARIA",
    "zone_id": "PRT1"
  },
  "CORD3": {
    "stop_code": "CORD3",
    "stop_lat": "41.1463860773766",
    "stop_lon": "-8.61521223485268",
    "stop_name": "CORDOARIA",
    "zone_id": "PRT1"
  },
  "CORD4": {
    "stop_code": "CORD4",
    "stop_lat": "41.1451110885692",
    "stop_lon": "-8.61619439750697",
    "stop_name": "CORDOARIA",
    "zone_id": "PRT1"
  },
  "CORD5": {
    "stop_code": "CORD5",
    "stop_lat": "41.1461721311939",
    "stop_lon": "-8.61532061006743",
    "stop_name": "CORDOARIA",
    "zone_id": "PRT1"
  },
  "CORD7": {
    "stop_code": "CORD7",
    "stop_lat": "41.1452237192497",
    "stop_lon": "-8.61602608073269",
    "stop_name": "CORDOARIA",
    "zone_id": "PRT1"
  },
  "CORD8": {
    "stop_code": "CORD8",
    "stop_lat": "41.146408867454",
    "stop_lon": "-8.61743694258477",
    "stop_name": "CORDOARIA",
    "zone_id": "PRT1"
  },
  "CORI1": {
    "stop_code": "CORI1",
    "stop_lat": "41.2024918139894",
    "stop_lon": "-8.57233086850262",
    "stop_name": "CORISCOS",
    "zone_id": "MAI4"
  },
  "CORM1": {
    "stop_code": "CORM1",
    "stop_lat": "41.2005923850661",
    "stop_lon": "-8.5743962049769",
    "stop_name": "CORIM",
    "zone_id": "MAI4"
  },
  "CORM2": {
    "stop_code": "CORM2",
    "stop_lat": "41.2004115755547",
    "stop_lon": "-8.57474894123945",
    "stop_name": "CORIM",
    "zone_id": "MAI4"
  },
  "COVH1": {
    "stop_code": "COVH1",
    "stop_lat": "41.15202594622",
    "stop_lon": "-8.51074876425103",
    "stop_name": "COVILHÃ",
    "zone_id": "GDM2"
  },
  "COVH4": {
    "stop_code": "COVH4",
    "stop_lat": "41.1521932093915",
    "stop_lon": "-8.51075985310539",
    "stop_name": "COVILHÃ",
    "zone_id": "GDM2"
  },
  "COVN1": {
    "stop_code": "COVN1",
    "stop_lat": "41.2102427254471",
    "stop_lon": "-8.53016572777756",
    "stop_name": "COVINA",
    "zone_id": "MAI4"
  },
  "COVN2": {
    "stop_code": "COVN2",
    "stop_lat": "41.2097342266633",
    "stop_lon": "-8.5311891263282",
    "stop_name": "COVINA",
    "zone_id": "MAI4"
  },
  "CPL1": {
    "stop_code": "CPL1",
    "stop_lat": "41.1672599428658",
    "stop_lon": "-8.61076995788132",
    "stop_name": "CAMPO LINDO",
    "zone_id": "PRT1"
  },
  "CPNH1": {
    "stop_code": "CPNH1",
    "stop_lat": "41.0954978714338",
    "stop_lon": "-8.6309978815653",
    "stop_name": "CAMPOLINHO",
    "zone_id": "VNG4"
  },
  "CPNH2": {
    "stop_code": "CPNH2",
    "stop_lat": "41.0961160043403",
    "stop_lon": "-8.6317286289904",
    "stop_name": "CAMPOLINHO",
    "zone_id": "VNG4"
  },
  "CPOV1": {
    "stop_code": "CPOV1",
    "stop_lat": "41.218655398233",
    "stop_lon": "-8.67394823394032",
    "stop_name": "CASA DO POVO",
    "zone_id": "MTS2"
  },
  "CPOV2": {
    "stop_code": "CPOV2",
    "stop_lat": "41.2185277286162",
    "stop_lon": "-8.67388886703473",
    "stop_name": "CASA DO POVO",
    "zone_id": "MTS2"
  },
  "CPR1": {
    "stop_code": "CPR1",
    "stop_lat": "41.1729999421155",
    "stop_lon": "-8.63316660537262",
    "stop_name": "CASA DA PRELADA",
    "zone_id": "PRT2"
  },
  "CPR2": {
    "stop_code": "CPR2",
    "stop_lat": "41.1735277260281",
    "stop_lon": "-8.63361107223982",
    "stop_name": "CASA DA PRELADA",
    "zone_id": "PRT2"
  },
  "CPRN4": {
    "stop_code": "CPRN4",
    "stop_lat": "41.17420880451",
    "stop_lon": "-8.6004976613948",
    "stop_name": "CEMITÉRIO PARANHOS",
    "zone_id": "PRT3"
  },
  "CPSF1": {
    "stop_code": "CPSF1",
    "stop_lat": "41.1750277977588",
    "stop_lon": "-8.6194444529488",
    "stop_name": "CAPELA SRA.FÁTIMA",
    "zone_id": "PRT2"
  },
  "CPSF2": {
    "stop_code": "CPSF2",
    "stop_lat": "41.1749722265935",
    "stop_lon": "-8.61927779828762",
    "stop_name": "CAPELA SRA.FÁTIMA",
    "zone_id": "PRT2"
  },
  "CPTO1": {
    "stop_code": "CPTO1",
    "stop_lat": "41.1604048354147",
    "stop_lon": "-8.57028567381111",
    "stop_name": "CERCO DO PORTO",
    "zone_id": "PRT3"
  },
  "CPTO2": {
    "stop_code": "CPTO2",
    "stop_lat": "41.1600350468594",
    "stop_lon": "-8.57091967390529",
    "stop_name": "CERCO DO PORTO",
    "zone_id": "PRT3"
  },
  "CPU1": {
    "stop_code": "CPU1",
    "stop_lat": "41.182237393897",
    "stop_lon": "-8.61808082455031",
    "stop_name": "CAPUCHINHOS",
    "zone_id": "PRT2"
  },
  "CPU2": {
    "stop_code": "CPU2",
    "stop_lat": "41.1828331626415",
    "stop_lon": "-8.61772767676164",
    "stop_name": "CAPUCHINHOS",
    "zone_id": "PRT2"
  },
  "CQ10": {
    "stop_code": "CQ10",
    "stop_lat": "41.1674217687502",
    "stop_lon": "-8.68912660556088",
    "stop_name": "CASTELO DO QUEIJO",
    "zone_id": "PRT2"
  },
  "CQ3": {
    "stop_code": "CQ3",
    "stop_lat": "41.1675322760582",
    "stop_lon": "-8.68720089716646",
    "stop_name": "CASTELO DO QUEIJO",
    "zone_id": "PRT2"
  },
  "CQ5": {
    "stop_code": "CQ5",
    "stop_lat": "41.1682356230068",
    "stop_lon": "-8.68784873927489",
    "stop_name": "SEA LIFE CASTELO DO QUEIJO",
    "zone_id": "PRT2"
  },
  "CQ8": {
    "stop_code": "CQ8",
    "stop_lat": "41.1678365315163",
    "stop_lon": "-8.6894557761123",
    "stop_name": "CASTELO DO QUEIJO",
    "zone_id": "PRT2"
  },
  "CRG1": {
    "stop_code": "CRG1",
    "stop_lat": "41.209628295147",
    "stop_lon": "-8.57509306857479",
    "stop_name": "CORGA",
    "zone_id": "MAI4"
  },
  "CRG2": {
    "stop_code": "CRG2",
    "stop_lat": "41.2098796212627",
    "stop_lon": "-8.57522842559986",
    "stop_name": "CORGA",
    "zone_id": "MAI4"
  },
  "CRJ1": {
    "stop_code": "CRJ1",
    "stop_lat": "41.1592845259",
    "stop_lon": "-8.58092164342542",
    "stop_name": "CORUJEIRA",
    "zone_id": "PRT3"
  },